name,address,adname,pname,type,lat,lon
海底捞火锅(打浦路店),打浦路1号金玉兰广场4层,黄浦区,上海市,餐饮服务;中餐厅;火锅店,31.206898386090796,121.46660267889027
三人行骨头王火锅(浙江路店),浙江南路8号,黄浦区,上海市,餐饮服务;中餐厅;火锅店,31.231980573162524,121.47710829431743
傣妹休闲·火锅(三牌楼路店),三牌楼路11号,黄浦区,上海市,餐饮服务;中餐厅;火锅店,31.226198970616245,121.48795077303737
春秋火锅(复兴中路店),复兴中路581号(近瑞金二路),黄浦区,上海市,餐饮服务;中餐厅;火锅店,31.216770825020117,121.46128031890623
新梅居(宁海一店),宁海东路303号,黄浦区,上海市,餐饮服务;中餐厅;火锅店,31.229820532546512,121.47533644525696
小肥羊火锅餐厅(陆家浜路店),陆家浜路1390号2层,黄浦区,上海市,餐饮服务;中餐厅;火锅店,31.213121337795844,121.47776615817187
东来顺(外滩店),南京东路66号和平商务耧5层(外滩五席),黄浦区,上海市,餐饮服务;中餐厅;火锅店,31.24080978444315,121.48408280466145
老北京涮锅(顺昌路店),顺昌路531号(顺昌路永年路口),黄浦区,上海市,餐饮服务;中餐厅;火锅店,31.214400886505153,121.47501366959914
这一锅(成都南路店),成都南路99弄1号,黄浦区,上海市,餐饮服务;中餐厅;火锅店,31.223425960006836,121.46334706026121
左庭右院(日月光中心),徐家汇路618号日月光中心4F层,黄浦区,上海市,餐饮服务;中餐厅;火锅店,31.208663708568853,121.46323598417015
邂逅.丽江斑鱼火锅,南京西路258号人广世茂52+6层(大光明电影院),黄浦区,上海市,餐饮服务;中餐厅;火锅店,31.23437861693464,121.46630738604289
一心牛(日月光中心),徐家汇路618号日月光中心2F层,黄浦区,上海市,餐饮服务;中餐厅;火锅店,31.2082345451735,121.46425016242468
季悦火锅(香港广场店),淮海中路283号香港广场购物中心3层SL3-01-02,黄浦区,上海市,餐饮服务;中餐厅;火锅店,31.22457827231804,121.4704204977259
成都制造火锅,西藏南路403号2层,黄浦区,上海市,餐饮服务;中餐厅;火锅店,31.223894682713496,121.47722739203363
海底捞火锅(人民广场店),西藏中路500号上海市第一百货商店5层,黄浦区,上海市,餐饮服务;中餐厅;火锅店,31.23794505726156,121.47004612760395
包再来美食汇,打浦路471号(近中山南一路),黄浦区,上海市,餐饮服务;中餐厅;火锅店,31.198672974451885,121.46904924161574
桥锅创意火锅,Spicymoment凤凰四川中路33号创业大厦9楼(华尔道夫酒店正对面近广东路),黄浦区,上海市,餐饮服务;中餐厅;火锅店,31.23506429060822,121.48505974584548
楼上火锅(茂名南路店),茂名南路46号2楼,黄浦区,上海市,餐饮服务;中餐厅;火锅店,31.22379064111452,121.45562415287802
四川香天下火锅(淮海中路店),淮海中路755号新华联大厦5层(瑞金二路)无印良品5层,黄浦区,上海市,餐饮服务;中餐厅;火锅店,31.220796437152355,121.45989481687734
重庆高老九火锅(大世界店),金陵东路500号亚龙国际广场2层,黄浦区,上海市,餐饮服务;中餐厅;火锅店,31.229036590789992,121.47558134250126
小龙坎老火锅(淮海路店),淮海中路1号H1美食不夜城2层(柳林路),黄浦区,上海市,餐饮服务;中餐厅;火锅店,31.22711791512429,121.47573302118077
涮匠火锅(黄浦店),中华路924号1层,黄浦区,上海市,餐饮服务;中餐厅;火锅店,31.21705964451759,121.4887443820504
就是泰泰式火锅(金陵东路店),金陵东路569号汇都国际广场3层(地铁8号线大世界站2号出口),黄浦区,上海市,餐饮服务;中餐厅;火锅店,31.228945400437738,121.4765546617522
小辉哥火锅(新邻生活广场店),陆家浜路1100号新邻生活广场3层12-13室,黄浦区,上海市,餐饮服务;中餐厅;火锅店,31.21346253064062,121.48237311939982
诺铂火锅,外马路579号老码头沃弗2号库3层,黄浦区,上海市,餐饮服务;中餐厅;火锅店,31.220320334313595,121.50252865330266
傣妹火锅(南京东路旗舰店),南京东路387号圣德娜商厦6层,黄浦区,上海市,餐饮服务;中餐厅;火锅店,31.23846628139529,121.47839415602944
哥老官美蛙鱼头(日月光中心),徐家汇路618号日月光中心5层RJ01室,黄浦区,上海市,餐饮服务;中餐厅;火锅店|餐饮服务;中餐厅;综合酒楼,31.207915078267302,121.46323905785462
成都火锅冒菜(广西南路店),广西南路10号(福建中路和山东中路),黄浦区,上海市,餐饮服务;中餐厅;火锅店,31.2311093256605,121.47582699955035
重庆高老九火锅(南京东路店),九江路399号2层,黄浦区,上海市,餐饮服务;中餐厅;火锅店,31.237686109845733,121.4782105904952
东来顺(无限极荟购物中心),湖滨路168号无限极荟购物中心B2层,黄浦区,上海市,餐饮服务;中餐厅;火锅店,31.222481442249023,121.47337446501989
千彩我的小火锅(南京东路店),南京东路588号丝绸商厦7层,黄浦区,上海市,餐饮服务;中餐厅;火锅店,31.237752055254074,121.474691586968
九鼎轩脆毛肚火锅(打浦路店),打浦路78号,黄浦区,上海市,餐饮服务;中餐厅;火锅店,31.205517920178224,121.46579724529647
哥老官重庆美蛙鱼头(人民广场店),金陵东路569号汇通大厦3层(近西藏南路),黄浦区,上海市,餐饮服务;中餐厅;火锅店,31.229041983761586,121.47642420861862
群记潮汕牛肉火锅(九江路店),九江路287号,黄浦区,上海市,餐饮服务;中餐厅;火锅店,31.23831085316997,121.47995255844089
美蛙王子(歌婓店),歌斐中心蒙自路757号二楼近中山南路,黄浦区,上海市,餐饮服务;中餐厅;火锅店,31.199570609510392,121.47766195578042
九鼎轩脆毛肚火锅(南京东路店),浙江中路399号一楼春申江大厦对面(步行街永安百货左侧30米),黄浦区,上海市,餐饮服务;中餐厅;火锅店,31.238123900547375,121.47327278758199
陈记顺和打边炉,浙江南路8号,黄浦区,上海市,餐饮服务;中餐厅;火锅店,31.23193368666962,121.4771404082221
天香火锅店(淮海店),淮海中路542弄103室(近成都南路),黄浦区,上海市,餐饮服务;中餐厅;火锅店,31.222942936498157,121.46402219212379
镇三关(中海环宇荟店),黄陂南路838弄中海环宇荟F2层L205,黄浦区,上海市,餐饮服务;中餐厅;火锅店,31.2141938555364,121.47247115922468
蜀城巷子老成都火锅,南京西路258号世贸商都6楼,黄浦区,上海市,餐饮服务;中餐厅;火锅店,31.234426592182082,121.46630637873366
铭府火锅(黄河路店),黄河路108号(地铁1、2、8号线人民广场站8号出口)(南京西路),黄浦区,上海市,餐饮服务;中餐厅;火锅店,31.236717148861235,121.46615871417733
函牛鼎潮汕牛肉火锅(城隍庙店),方浜中路280号金豫商厦2层,黄浦区,上海市,餐饮服务;中餐厅;火锅店,31.22705874786976,121.48700131737513
围炉鲜(淮海路店),淮海中路755号新华联大厦4层,黄浦区,上海市,餐饮服务;中餐厅;火锅店,31.220821565298127,121.45995098199556
洋房火锅(上海新天地南里),太仓路181弄上海新天地南里F1层,黄浦区,上海市,餐饮服务;中餐厅;火锅店,31.221728110492286,121.47096553227473
台北吴记老锅底麻辣火锅(浙江中路店),福州路567号八仙商务楼2层,黄浦区,上海市,餐饮服务;中餐厅;火锅店,31.23475335096349,121.4753711414589
大季火锅,江阴街336号,黄浦区,上海市,餐饮服务;中餐厅;火锅店,31.217463088727918,121.48321473389821
况且况且串串香火锅,汉口路647号,黄浦区,上海市,餐饮服务;中餐厅;火锅店,31.235591415338565,121.47375662513136
帅锅火锅饭店,成都南路105号,黄浦区,上海市,餐饮服务;中餐厅;火锅店,31.223131401868418,121.46346444802755
过三关厚毛肚老火锅,老西门街道黄家阙路85号,黄浦区,上海市,餐饮服务;中餐厅;火锅店,31.216858488423014,121.48325291963151
左庭右院,南京东路800号东方商厦9层,黄浦区,上海市,餐饮服务;中餐厅;火锅店,31.237509747601315,121.47095414435897
傣妹火锅(豫园店),三牌楼路11号豫园1楼,黄浦区,上海市,餐饮服务;中餐厅;火锅店,31.226208939087876,121.48794173997229
彩泥·云南三锅(世茂店),南京东路829号百联世茂国际广场F7层L508,黄浦区,上海市,餐饮服务;中餐厅;火锅店,31.23604767182093,121.4710465738982
捞游记·蝴蝶斑鱼火锅(香港名都店),河南南路489号香港名都F5层,黄浦区,上海市,餐饮服务;中餐厅;火锅店,31.22417798828688,121.4856146370775
大龙燚火锅(淮海东路店),云南南路261号二楼(近淮海东路),黄浦区,上海市,餐饮服务;中餐厅;火锅店,31.22788879243863,121.4775692227035
蜀大侠(高盛店),西藏中路180号高盛商厦4楼,黄浦区,上海市,餐饮服务;中餐厅;火锅店,31.233162801259116,121.47242036847979
潮州牛肉火锅店,方浜中路249号城隍庙小吃王国3层(华宝楼对面),黄浦区,上海市,餐饮服务;中餐厅;火锅店,31.22790664696602,121.48710059866292
CHAO桥锅(外滩店),"四川中路33号9楼(近延安东路,华尔道夫酒店斜对面)",黄浦区,上海市,餐饮服务;中餐厅;火锅店,31.234998249869548,121.4850356662455
容热气羊肉,宁海东路280号一楼,黄浦区,上海市,餐饮服务;中餐厅;火锅店|餐饮服务;中餐厅;特色/地方风味餐厅,31.229758112875697,121.47517791374509
很久以前羊肉串(打浦路店),打浦路403号(瞿溪路1侧2层),黄浦区,上海市,餐饮服务;中餐厅;火锅店,31.200424006037707,121.46789837547416
海底捞火锅(百盛淮海路店),淮海中路918号百盛(淮海路店)L8层,黄浦区,上海市,餐饮服务;中餐厅;火锅店,31.219474763039756,121.4548122382502
一牛火锅(多稼路店),多稼路220号(中山南路靠近4号线),黄浦区,上海市,餐饮服务;中餐厅;火锅店,31.21444382698127,121.49674233736218
禾牛阵(长乐路店),长乐路400号锦江国际旅游中心2层,黄浦区,上海市,餐饮服务;中餐厅;火锅店,31.222797796427006,121.45506867164674
林记五哥潮汕火锅,九江路327B楼4层,黄浦区,上海市,餐饮服务;中餐厅;火锅店,31.23803100684657,121.47892402098917
hotpot,延安东路同济大学黄浦分部,黄浦区,上海市,餐饮服务;中餐厅;火锅店,31.23260999709853,121.47944327908009
三人行火锅骨头王,南京西路231号,黄浦区,上海市,餐饮服务;中餐厅;火锅店,31.233334125020473,121.46631750771391
仙一锅,多稼路228号,黄浦区,上海市,餐饮服务;中餐厅;火锅店,31.214510838221848,121.49642318197957
鼎尊锅物料理,斜土路197号2层(近局门路),黄浦区,上海市,餐饮服务;中餐厅;火锅店,31.208019247300353,121.47687654629861
耍牛忙·串串香(人民广场店),云南中路258号2层,黄浦区,上海市,餐饮服务;中餐厅;火锅店,31.235469894978465,121.47247635741205
上海乔家栅(西凌家宅店),西藏南路西凌家宅144号,黄浦区,上海市,餐饮服务;中餐厅;火锅店,31.20594839311131,121.48142845383374
三人行(日月光中心西区),徐家汇路618号日月光中心西区F5层,黄浦区,上海市,餐饮服务;中餐厅;火锅店,31.20850909838427,121.46297017919817
娇和·不奢川锅(人民广场店),金陵东路500号亚龙广场4层2号,黄浦区,上海市,餐饮服务;中餐厅;火锅店,31.229064933355314,121.4757067657686
渝利火锅(打浦桥店),徐家汇路618号日月光中心4F层,黄浦区,上海市,餐饮服务;中餐厅;火锅店,31.209017237462863,121.46350678967417
牛小嫩串串香火锅,云南南路与金陵东路交叉口北50米,黄浦区,上海市,餐饮服务;中餐厅;火锅店,31.22957054357745,121.47635593077169
壹小馆(香港广场购物中心北区),淮海中路283号香港广场购物中心北区F4层,黄浦区,上海市,餐饮服务;中餐厅;火锅店,31.225947056166167,121.47021069318012
马路边边串串香(天津路店),天津路256号(南京路青年旅社隔壁),黄浦区,上海市,餐饮服务;中餐厅;火锅店,31.239627493942205,121.47690895971044
小辉哥火锅(香港广场购物中心北区),淮海中路283号香港广场购物中心北区F4层NL4-04,黄浦区,上海市,餐饮服务;中餐厅;火锅店,31.225768965729547,121.46978130492333
椰子不语(LuOne凯德晶萃广场),徐家汇路268号LuOne凯德晶萃广场F5层05-25/26,黄浦区,上海市,餐饮服务;中餐厅;火锅店,31.211703222928385,121.47253357976331
有签花成都串串香,陕西南路35-4号,黄浦区,上海市,餐饮服务;中餐厅;火锅店,31.222581556722698,121.45320050433529
贤合庄卤味火锅(人民广场店),金陵东路621号汇通大厦1层,黄浦区,上海市,餐饮服务;中餐厅;火锅店,31.228871223545653,121.47612921837799
奎星楼串串香公司,太仓路58号对面九号商场105室,黄浦区,上海市,餐饮服务;中餐厅;火锅店,31.223673098791288,121.47309442678984
南门涮肉(城隍庙店),四川南路新永安路路口52号,黄浦区,上海市,餐饮服务;中餐厅;火锅店,31.23206335222586,121.48664060903018
凑凑火锅·茶憩(打浦桥日月光店),徐家汇路618号日月光中心1F层,黄浦区,上海市,餐饮服务;中餐厅;火锅店,31.207983448966008,121.46378172916148
蛙来哒(日月光中心西区),徐家汇路618号日月光中心2F层2F-XJH-09,黄浦区,上海市,餐饮服务;中餐厅;火锅店,31.208066174888803,121.46407663719343
新一哥(瑞金店),瑞金南路1号海兴广场A-2室,黄浦区,上海市,餐饮服务;中餐厅;火锅店,31.20620189062861,121.4628439894109
村夫烤鱼(黄河路店),[],黄浦区,上海市,餐饮服务;中餐厅;特色/地方风味餐厅|餐饮服务;中餐厅;火锅店,31.237114791165958,121.46571427475108
洪员外川卤老火锅传奇(新世界店),南京西路2-68号9楼,黄浦区,上海市,餐饮服务;中餐厅;火锅店,31.237003095633625,121.46916834728259
房鼎海鲜火锅,打浦路88号,黄浦区,上海市,餐饮服务;中餐厅;火锅店,31.2052491992102,121.46585344578858
重庆高老九火锅,淮海中路138号上海广场1504室,黄浦区,上海市,餐饮服务;中餐厅;火锅店,31.227183214059085,121.47336603495474
京炉·北京烤鸭火锅(第一百货店),南京东路830号第一百货B馆5楼海底捞火锅旁,黄浦区,上海市,餐饮服务;中餐厅;火锅店,31.237604133632622,121.47001706175398
京炉·北京烤鸭火锅(日月光店),徐家汇路618号日月光中心5F层,黄浦区,上海市,餐饮服务;中餐厅;火锅店,31.208296229671717,121.4629812314375
电台巷火锅(人广旗舰店),广西北路235号,黄浦区,上海市,餐饮服务;中餐厅;火锅店,31.235111928012508,121.4731466232819
香乡村羊蝎子(打浦路店),打浦路200弄1-5号,黄浦区,上海市,餐饮服务;中餐厅;火锅店,31.203434664381444,121.46645049200332
闻签港式火锅,云南南路295号附近,黄浦区,上海市,餐饮服务;中餐厅;火锅店,31.227593194975857,121.47766156475302
坎耶管理有限公司,淮海东路68号,黄浦区,上海市,餐饮服务;中餐厅;火锅店,31.228311749239428,121.4769239770571
三人行骨头王火锅,南京东路819号百联世贸7层,黄浦区,上海市,餐饮服务;中餐厅;火锅店,31.236370896789257,121.47118199257405
鼎尊养生火锅,局门路与斜土路交叉口东北50米,黄浦区,上海市,餐饮服务;中餐厅;火锅店,31.208023253958515,121.47687955624144
财运煲煲,南京东路830号第一百货商业中心B馆六楼,黄浦区,上海市,餐饮服务;中餐厅;火锅店,31.237834324700874,121.47012539639316
宝怡香港打边炉,复兴中路525号三楼,黄浦区,上海市,餐饮服务;中餐厅;火锅店,31.2172190552721,121.46418017421068
小肥羊,陆家浜路1390号,黄浦区,上海市,餐饮服务;中餐厅;火锅店,31.21315103214179,121.47801300364532
相约牛市潮汕鲜牛肉火锅,"西藏南路1493号(弘辉名苑商铺,近瞿溪路)",黄浦区,上海市,餐饮服务;中餐厅;火锅店,31.20510754420716,121.48474919472208
小牛有约原味牛肉火锅(人民广场店),金陵东路569号汇都国际广场3楼,黄浦区,上海市,餐饮服务;中餐厅;火锅店,31.228453121436573,121.47567270237361
颐品居火锅(顺昌路分店),顺昌路512号(近永年路),黄浦区,上海市,餐饮服务;中餐厅;火锅店,31.21465114621402,121.47479390572373
拼搏奋斗,徐家汇路日月光广场二楼,黄浦区,上海市,餐饮服务;中餐厅;火锅店,31.20851648537993,121.46389503474641
捞王(百联世茂国际广场),南京东路829号百联世茂国际广场F6层L402,黄浦区,上海市,餐饮服务;中餐厅;火锅店,31.235944970747454,121.47077468787263
左庭右院(新世界大丸百货店),南京东路228号新世界大丸百货B2层,黄浦区,上海市,餐饮服务;中餐厅;火锅店,31.24035031491447,121.480432050576
Mo-Mo牧场(陕西南路店),陕西南路35号红房子2层(近长乐路),黄浦区,上海市,餐饮服务;中餐厅;火锅店,31.22258248956365,121.45317142455892
上海鲜入围煮(金钟广场店),柳林路2号金钟广场东门2楼(柳林路金陵路口),黄浦区,上海市,餐饮服务;中餐厅;火锅店,31.228052345452234,121.47462519174304
尽膳口福跷脚牛肉(新天地店),湖滨路168号无限极荟商城2层,黄浦区,上海市,餐饮服务;中餐厅;火锅店,31.222804678729148,121.47279751007977
捞王(日月光中心广场店),徐家汇路618号日月光中心5楼,黄浦区,上海市,餐饮服务;中餐厅;火锅店,31.207797155658206,121.46478587155295
谭鸭血老火锅(上海环贸店),陕西南路141号-1(地铁1/10/12号线陕西南路站8、9号口对面),黄浦区,上海市,餐饮服务;中餐厅;火锅店,31.217694267642,121.45509317982243
北京老门框爆肚涮肉馆(淮海东路店),淮海东路东淮海国际大厦45号,黄浦区,上海市,餐饮服务;中餐厅;火锅店,31.22833088764246,121.47802274248669
炉得香烤鸭火锅(人民广场店),南京西路258号人广世茂52+6层,黄浦区,上海市,餐饮服务;中餐厅;火锅店,31.234211661881762,121.46629536221812
藏而不语火锅,马当路428号二楼(卢湾公证处隔壁),黄浦区,上海市,餐饮服务;中餐厅;火锅店,31.215711669944742,121.47085869534655
京菜,云南南路与宁海东路交叉口西南50米,黄浦区,上海市,餐饮服务;中餐厅;火锅店,31.229949775404133,121.4757959932343
珮姐老火锅(人民广场店),淮海东路淮云大厦1层,黄浦区,上海市,餐饮服务;中餐厅;火锅店,31.228350897254934,121.47698217268595
今日牛事潮州牛肉火锅(瑞金南路店),瑞金南路343-5号(近瞿溪路),黄浦区,上海市,餐饮服务;中餐厅;火锅店,31.198850755141287,121.46525811863225
璧玉火锅热气羊肉,宁海东路307-309号(近大世界),黄浦区,上海市,餐饮服务;中餐厅;火锅店,31.229735038453907,121.47514781384423
吉友粥底火锅(建国东路店),建国东路23号,黄浦区,上海市,餐饮服务;中餐厅;火锅店,31.215561164686616,121.4760129590302
小牛故事·潮汕鲜牛肉火锅,普育西路206号,黄浦区,上海市,餐饮服务;中餐厅;火锅店,31.211663553788423,121.48919043427858
川蜀锅语老火锅(人民广场店),黄河路108号2楼,黄浦区,上海市,餐饮服务;中餐厅;火锅店,31.236836400119344,121.46627406960725
蜀公馆成都潮人火锅(金玉兰店),打浦路11号201室B座,黄浦区,上海市,餐饮服务;中餐厅;火锅店,31.206787547993144,121.46588942766485
爸爸炒料牛排老火锅(淮海路旗舰店),淮海中路1号H1美食不夜城1F-2F,黄浦区,上海市,餐饮服务;中餐厅;火锅店,31.227125535291865,121.47524737375221
家有好签(上海书城店),福州路452号,黄浦区,上海市,餐饮服务;中餐厅;火锅店,31.235783810626014,121.47745415433549
面道好麻辣串串夜宵(黄家阙路店),黄家阙路133号(大林路),黄浦区,上海市,餐饮服务;中餐厅;特色/地方风味餐厅|餐饮服务;中餐厅;火锅店,31.216261129381756,121.48371459551466
辉哥海鲜火锅(圆明园路店),圆明园路115号,黄浦区,上海市,餐饮服务;中餐厅;火锅店,31.243547070571246,121.4835818055004
上上谦火锅(南京东路步行街店),南京东路300号恒基名人购物中心5楼,黄浦区,上海市,餐饮服务;中餐厅;火锅店,31.23988911896578,121.47960220882108
小辉哥火锅(恒基名人购物中心)(暂停营业),南京东路300号恒基名人购物中心5层,黄浦区,上海市,餐饮服务;中餐厅;火锅店,31.239718190708615,121.47994541363425
钢管厂五区小郡肝串串香火锅(上海一店),九江路287号,黄浦区,上海市,餐饮服务;中餐厅;火锅店,31.23833511262169,121.48004588034158
钢管厂五区小郡肝串串香火锅(上海旗舰店),南京东路66号2层,黄浦区,上海市,餐饮服务;中餐厅;火锅店,31.24079346928751,121.48363322107289
钢管厂坝子小郡肝火锅串串香(上海店),天津路423号,黄浦区,上海市,餐饮服务;中餐厅;火锅店,31.23845441635568,121.4738677533992
月圆火锅(宁海东路二店),宁海东路281号,黄浦区,上海市,餐饮服务;中餐厅;火锅店,31.23010512249511,121.4755912849791
况且况且客官数签签(上海人民广场店),汉口路647-649号,黄浦区,上海市,餐饮服务;中餐厅;火锅店,31.235598448692866,121.47376966829822
火鸳鸯(LuOne凯德晶萃广场),徐家汇路268号LuOne凯德晶萃广场F2层02-23,黄浦区,上海市,餐饮服务;中餐厅;火锅店,31.2125654650048,121.47312748645444
钢管厂五区小肫肝串串香火锅(上海一店),九江路287号钢管厂五区,黄浦区,上海市,餐饮服务;中餐厅;火锅店,31.23829992796691,121.47997664296938
桢记热气涮羊肉(宁海东路店),宁海东路280号(近云南南路),黄浦区,上海市,餐饮服务;中餐厅;火锅店,31.23009507595017,121.4755732245612
海底捞火锅(华山路店),华山路2068号百联徐汇商业广场南5层,徐汇区,上海市,餐饮服务;中餐厅;火锅店,31.198660498129616,121.43275629165942
洋房火锅(岳阳路店),岳阳路1号上海教育会堂,徐汇区,上海市,餐饮服务;中餐厅;火锅店,31.211019118330658,121.44778923827631
三人行骨头王汤煲火锅(肇嘉浜路总店),肇嘉浜路879号,徐汇区,上海市,餐饮服务;中餐厅;火锅店,31.198942027234256,121.44077560469692
三人行骨头王火锅(田林店),柳州路551号,徐汇区,上海市,餐饮服务;中餐厅;火锅店,31.175807313948656,121.41856915796313
辣府(嘉善路店),嘉善路508号附5号,徐汇区,上海市,餐饮服务;中餐厅;火锅店,31.206072224427444,121.45567582367119
皇城根火锅店(宛平路店),宛平路295弄之1-19号,徐汇区,上海市,餐饮服务;中餐厅;火锅店,31.200469997961907,121.43953474838389
串串香麻辣汤(襄阳路店),襄阳南路311号,徐汇区,上海市,餐饮服务;中餐厅;特色/地方风味餐厅|餐饮服务;中餐厅;火锅店,31.210778769867353,121.45345923120283
小辉哥火锅(光启城),宜山路455号光启城5层501-502号,徐汇区,上海市,餐饮服务;中餐厅;火锅店,31.186471200921986,121.42361956534566
胖头鱼活鱼火锅,漕溪路245号望族城近漕宝路,徐汇区,上海市,餐饮服务;中餐厅;火锅店,31.17234403258807,121.43098537875566
粤汕一牛(田尚坊店),钦州北路226号B1层03、04,徐汇区,上海市,餐饮服务;中餐厅;火锅店,31.182864626002033,121.41491079558936
鼎王餐饮集团,衡山路2号甲香樟花园内(近桃江路),徐汇区,上海市,餐饮服务;中餐厅;火锅店|公司企业;公司;公司,31.21119968627026,121.44520783796617
豆捞坊(汇金百货西区),肇嘉浜路1000号汇金百货西区F8层,徐汇区,上海市,餐饮服务;中餐厅;火锅店,31.197042587029006,121.43544256553307
今日牛事(虹漕南路店),虹漕南路7号(近漕宝路),徐汇区,上海市,餐饮服务;中餐厅;火锅店,31.165901944202666,121.40778701134447
熬八年(上海长乐店),富民路291号悟锦世纪大楼1楼(富民路与长乐路交汇处),徐汇区,上海市,餐饮服务;中餐厅;火锅店,31.219440771446315,121.44810631511034
锦林坊老北京涮肉馆,罗秀路847-849号,徐汇区,上海市,餐饮服务;中餐厅;火锅店,31.13316892463972,121.42910154491884
潮香牛宴(徐汇店),零陵路899号飞洲国际广场F5层,徐汇区,上海市,餐饮服务;中餐厅;火锅店,31.185230551702436,121.43300391318404
新花城海鲜火锅(东湖路店),东湖路58号,徐汇区,上海市,餐饮服务;中餐厅;火锅店,31.21831425917978,121.44947994035478
小肥羊火锅(光启城),宜山路455号光启城时尚购物中心5层515室,徐汇区,上海市,餐饮服务;中餐厅;火锅店,31.185604958605076,121.42389802831866
牛气汇天下,柳州路427号格林豪泰酒店隔壁,徐汇区,上海市,餐饮服务;中餐厅;火锅店,31.17095461189336,121.42043576414213
严记老北京涮锅(乌鲁木齐路店),乌鲁木齐中路346号1楼(近复兴西路),徐汇区,上海市,餐饮服务;中餐厅;火锅店,31.212764459053474,121.44191196606084
羊蝎子涮锅,双峰路105号(利民杂货店隔壁),徐汇区,上海市,餐饮服务;中餐厅;火锅店,31.184297737095548,121.4441195534303
老北京涮肉馆(华发路),华发路45号(龙吴路),徐汇区,上海市,餐饮服务;中餐厅;火锅店,31.12887724108862,121.44919590570149
大龙燚火锅(大木桥路店),大木桥路360号,徐汇区,上海市,餐饮服务;中餐厅;火锅店,31.198731405573458,121.45759194567805
佬太公海鸭,大木桥路428号二楼,徐汇区,上海市,餐饮服务;中餐厅;火锅店,31.198432506237832,121.45757291619998
我爱都捞(龙州路店),龙州路923号(近梅陇路),徐汇区,上海市,餐饮服务;中餐厅;火锅店,31.140240536250957,121.41819983318857
米香园(小木桥路店),小木桥路608号,徐汇区,上海市,餐饮服务;中餐厅;火锅店,31.192716406978647,121.45719230673213
重庆高老九火锅(徐家汇店),天钥桥路386号3层,徐汇区,上海市,餐饮服务;中餐厅;火锅店,31.190095947021454,121.43717265552893
天都火锅酒楼(罗香路店),罗香路20号,徐汇区,上海市,餐饮服务;中餐厅;火锅店,31.138201754420148,121.43772528273607
辣串门成都酒肆(徐汇店),钦洲南路607号,徐汇区,上海市,餐饮服务;中餐厅;火锅店,31.1598714116577,121.41491379537264
沪小锅上海小火锅(徐汇店),石龙路569号2号楼102室,徐汇区,上海市,餐饮服务;中餐厅;火锅店,31.155458966352484,121.43178526211366
北京五爷涮羊肉(田尚坊店),钦州北路226号田尚坊地下一层B12(丰茂隔壁),徐汇区,上海市,餐饮服务;中餐厅;火锅店|餐饮服务;中餐厅;北京菜,31.18254474020461,121.41349055906497
左庭右院鲜牛肉火锅(日月光),漕宝路33号日月光B1层B1-05,徐汇区,上海市,餐饮服务;中餐厅;火锅店,31.17085246877285,121.4271501311066
老李羊羯子涮锅(柳州路店),柳州路356号-2附近,徐汇区,上海市,餐饮服务;中餐厅;火锅店,31.171062122734217,121.42000423343016
姥佛爷麻辣火锅(天钥桥路店),天钥桥路323号2楼,徐汇区,上海市,餐饮服务;中餐厅;火锅店,31.190452399979314,121.43753737819699
梦里川渔老火锅,苍梧路14-43号,徐汇区,上海市,餐饮服务;中餐厅;火锅店,31.17246100097908,121.40870196506813
红辣椒(徐汇店),漕溪北路339号百脑汇2期B1,徐汇区,上海市,餐饮服务;中餐厅;火锅店,31.192902899680572,121.43375365558713
九鼎轩脆毛肚火锅(淮海中路店),淮海中路988号黄金世界5层环贸对面,徐汇区,上海市,餐饮服务;中餐厅;火锅店,31.218597010448025,121.453881723492
辣府(徐汇星游城店),天钥桥路580号星游城4楼07铺,徐汇区,上海市,餐饮服务;中餐厅;火锅店,31.187088599812668,121.43783629122515
颐品居涮肉(宁海路乌中店),乌鲁木齐中路352号1-3层,徐汇区,上海市,餐饮服务;中餐厅;火锅店,31.212706540279452,121.44194003493979
德林酸菜鱼火锅,南丹东路157号-1,徐汇区,上海市,餐饮服务;中餐厅;火锅店,31.192145514534563,121.43693198445777
二筒老火锅,钦州北路226号,徐汇区,上海市,餐饮服务;中餐厅;火锅店,31.182833771512882,121.4150789550704
椒羞串串(徐家汇店),天平路290号(近衡山路),徐汇区,上海市,餐饮服务;中餐厅;火锅店,31.198852664659526,121.43481317482663
渝利火锅(徐家汇城开店),天钥桥路123号城开YOYO三楼,徐汇区,上海市,餐饮服务;中餐厅;火锅店,31.19413527784682,121.43736770836794
小龙坎老火锅(正大乐城),中山南二路699号正大乐城F2层5-202,徐汇区,上海市,餐饮服务;中餐厅;火锅店,31.18851944889855,121.45379005862054
相逢菌语,桂平路329号,徐汇区,上海市,餐饮服务;中餐厅;火锅店,31.162269937263638,121.40175498840408
香守潮汕海鲜火锅,岳阳路190号,徐汇区,上海市,餐饮服务;中餐厅;火锅店,31.20696992069761,121.44771740614505
红魔(日月光),漕宝路33号日月光B1层B1-12/15,徐汇区,上海市,餐饮服务;中餐厅;火锅店,31.170990377743347,121.42789029223508
老锅底台北吴记,瑞平路88号附近,徐汇区,上海市,餐饮服务;中餐厅;火锅店,31.186252068737048,121.45313244533001
汤季(光启城),宜山路455号光启城L4层429-430,徐汇区,上海市,餐饮服务;中餐厅;火锅店,31.186421971006038,121.4233982642667
袁老四老火锅(桂林路店),宜山路700号A1栋3楼,徐汇区,上海市,餐饮服务;中餐厅;火锅店,31.17692244003621,121.41177066044547
黄门老灶火锅,肇嘉浜路268号2层,徐汇区,上海市,餐饮服务;中餐厅;火锅店,31.205334403354097,121.45644006170001
川福楼火锅(梅陇店),梅陇路289号,徐汇区,上海市,餐饮服务;中餐厅;火锅店,31.14064713504895,121.41565816889543
洪太极(徐汇店),柳州路435号上勤假日宾馆,徐汇区,上海市,餐饮服务;中餐厅;火锅店,31.17155905527563,121.42019141526738
椰子不语(淮海路店),淮海中路1008号2层,徐汇区,上海市,餐饮服务;中餐厅;火锅店,31.21817578453126,121.45282686230613
重庆鸡公煲,斜土路2213号,徐汇区,上海市,餐饮服务;中餐厅;火锅店,31.19423079028761,121.44361751106247
这一小锅,漕宝路33号日月光F1层L1-03/05,徐汇区,上海市,餐饮服务;中餐厅;火锅店,31.17106823777385,121.42705796828601
李鸭血重庆老火锅(徐汇店),斜土路2701号2号楼,徐汇区,上海市,餐饮服务;中餐厅;火锅店,31.18756993800883,121.43759474653591
小辉哥火锅(正大乐城店),中山南二路699号正大乐城F3层2-304&305,徐汇区,上海市,餐饮服务;中餐厅;火锅店,31.18868310987309,121.45324454329118
左庭右院(星游城),天钥桥路580号星游城5F层,徐汇区,上海市,餐饮服务;中餐厅;火锅店,31.186943642632684,121.43781926821487
渝利火锅(徐汇日月光店),漕宝路33号日月光B1层B1-01/02,徐汇区,上海市,餐饮服务;中餐厅;火锅店,31.170639857835884,121.42736348482407
煲宫猪肚鸡(星游城),天钥桥路580号星游城5F层,徐汇区,上海市,餐饮服务;中餐厅;火锅店,31.18725198172092,121.43810083118267
金牌小辉哥火锅(美罗城),肇嘉浜路1111号美罗城F4层,徐汇区,上海市,餐饮服务;中餐厅;火锅店,31.194477024715482,121.43432060111856
九鼎轩脆毛肚火锅(漕宝路店),漕宝路33号日月光中心B1-19,徐汇区,上海市,餐饮服务;中餐厅;火锅店,31.17089851887624,121.42796041276371
福地冒菜,正谊路与福庆路交叉口西100米,徐汇区,上海市,餐饮服务;中餐厅;火锅店,31.19983632349241,121.44575815630903
台北吴记老锅底麻辣火锅(绿地缤纷城店),东安路562号绿地缤纷城东区3层H301-H307,徐汇区,上海市,餐饮服务;中餐厅;火锅店,31.186405913464622,121.45309833875146
重庆熬家老火锅(绿地缤纷城店),东安路562号绿地缤纷城徐汇店西区F3层WD-303&306,徐汇区,上海市,餐饮服务;中餐厅;火锅店,31.18532130943705,121.45215486747817
嗨锅(徐汇日月光店),漕宝路33号日月光B2层B2-17,徐汇区,上海市,餐饮服务;中餐厅;火锅店,31.17098264232324,121.42881780196541
旺晖火锅(古美店),古美路1168号,徐汇区,上海市,餐饮服务;中餐厅;火锅店,31.158913391635107,121.39601783595057
谭鸭血老火锅(汇京店),淮海西路555号汇京国际广场1楼,徐汇区,上海市,餐饮服务;中餐厅;火锅店,31.198274224197963,121.41873539393504
蜀公馆火锅料理(肇嘉浜路店),肇嘉浜路263号二层三层,徐汇区,上海市,餐饮服务;中餐厅;火锅店,31.204660124833207,121.4574339786288
敖将军龙虾·火锅(柳州路店),区柳州路356号-2,徐汇区,上海市,餐饮服务;中餐厅;火锅店|餐饮服务;中餐厅;海鲜酒楼,31.170936195301444,121.42001225395909
牛杂火锅,淮海中路939-947号巴黎春天百货五楼,徐汇区,上海市,餐饮服务;中餐厅;火锅店,31.2182157404555,121.45411841216716
玩儿串串(徐汇日月光店),漕宝路33号徐汇日月光中心B2楼,徐汇区,上海市,餐饮服务;中餐厅;火锅店,31.170912527827934,121.42797243086876
潮州牛肉火锅,虹漕南路7号(今日牛事),徐汇区,上海市,餐饮服务;中餐厅;火锅店,31.16588794112889,121.40776399996284
火锅·烤鱼·鸡公煲,龙华路3094号周家湾底商,徐汇区,上海市,餐饮服务;中餐厅;火锅店,31.17376407515078,121.44511785058471
串无极,瑞平路88号绿地缤纷城西区三层WE302-303,徐汇区,上海市,餐饮服务;中餐厅;火锅店,31.18538768027359,121.45233334430674
渝江记忆星空·火锅,[],徐汇区,上海市,餐饮服务;中餐厅;火锅店,31.19246515086759,121.43739390697756
渝利火锅,辛耕路152号301室,徐汇区,上海市,餐饮服务;中餐厅;火锅店,31.194489135425805,121.43796091192442
上上签,[],徐汇区,上海市,餐饮服务;中餐厅;火锅店,31.186287467446107,121.4469332232823
闽峡餐厅,沪闵路9506号鸡公煲店面,徐汇区,上海市,餐饮服务;中餐厅;火锅店,31.167882984893364,121.42935696748492
老北京羊蝎子,罗秀路847-849号,徐汇区,上海市,餐饮服务;中餐厅;火锅店,31.128844245929322,121.44918989301311
大龙焱火锅,天钥桥路93号三楼,徐汇区,上海市,餐饮服务;中餐厅;火锅店,31.19512398048105,121.43689765659664
老李羊蝎子涮锅,柳州路476临附近,徐汇区,上海市,餐饮服务;中餐厅;火锅店,31.17421123826958,121.41868742953122
如在蜀毛肚老火锅,天钥桥路319号3楼c室,徐汇区,上海市,餐饮服务;中餐厅;火锅店,31.191525838017455,121.43752125191821
沪小二炭火蛙锅(美罗城店),肇嘉浜路1111号美罗城F6层,徐汇区,上海市,餐饮服务;中餐厅;火锅店,31.195112760724594,121.43496880192907
吴记鸡小煲,田林街道宜山路437号,徐汇区,上海市,餐饮服务;中餐厅;火锅店,31.18577882346752,121.42298475631387
那年那班串串香火锅,中山西路2368号美千居生活广场A07,徐汇区,上海市,餐饮服务;中餐厅;火锅店,31.182171749913742,121.42793439414378
猫儿滩火锅,钦州北路226号B1层22室,徐汇区,上海市,餐饮服务;中餐厅;火锅店,31.182783410845435,121.41319128559677
老四川饭店·潮汕鲜牛肉火锅,桂林路662号老四川饭店,徐汇区,上海市,餐饮服务;中餐厅;火锅店,31.18273274755231,121.4086270274098
香港柒胜荟海鲜火锅酒家(滨江绿地店),龙启路258号绿地汇中心B座G-101,徐汇区,上海市,餐饮服务;中餐厅;火锅店,31.166464395942644,121.45280926447954
七口辣火锅杯(天钥桥路店),天钥桥路93号二楼A,徐汇区,上海市,餐饮服务;中餐厅;火锅店,31.19493107584382,121.43689767331874
珑猫小火锅(宜山路店),宜山路439号401室,徐汇区,上海市,餐饮服务;中餐厅;火锅店,31.185860767687654,121.42297173158994
百味记小郡肝串串香(柳州路店),柳州路368号-2铺,徐汇区,上海市,餐饮服务;中餐厅;火锅店,31.171262937129733,121.4199211167022
凤鲜姐姐·毛血旺茶火锅,田林路116-2楼,徐汇区,上海市,餐饮服务;中餐厅;火锅店,31.17217389879913,121.41182811689158
有拈头成都市井火锅(田林店),田林路105号101室沿街(近桂林路),徐汇区,上海市,餐饮服务;中餐厅;火锅店,31.171858689770495,121.41122769534039
麻十七麻辣牛肉火锅(徐家汇店),裕德路111号南洋1931F3层F3-04,徐汇区,上海市,餐饮服务;中餐厅;火锅店,31.187889313015685,121.4282564184115
要得火锅,桂林路37号10号,徐汇区,上海市,餐饮服务;中餐厅;火锅店,31.159549265506648,121.4157836505058
红盔甲小龙虾羊蝎子火锅(田林路店),田林路126号3层,徐汇区,上海市,餐饮服务;中餐厅;火锅店,31.172010264858176,121.41063926084593
沪好青年火锅鸡(桂林路店),虹梅路街道桂林路402号熙客美食,徐汇区,上海市,餐饮服务;中餐厅;火锅店,31.17430356805472,121.41143863841334
那都不是锅港式打边炉(田林店),田林路132号-2,徐汇区,上海市,餐饮服务;中餐厅;火锅店,31.171791761108707,121.40952353168595
重庆镇三关火锅(东航云锦天地店),龙兰路东航云锦天地277号,徐汇区,上海市,餐饮服务;中餐厅;火锅店,31.16793773623676,121.4519718695469
爽爆美蛙鱼头火锅(绿地缤纷城徐汇店西区),东安路562号绿地缤纷城徐汇店西区F3层WD-301,徐汇区,上海市,餐饮服务;中餐厅;火锅店,31.185440283724226,121.45216989782963
成都香火锅&巫山烤全鱼&重庆鸡公煲(龙华路店),龙华路3094号周家湾底商,徐汇区,上海市,餐饮服务;中餐厅;火锅店,31.173780170329753,121.44516897265889
大龙燚火锅(天钥桥路店),天钥桥路93号3A-1室,徐汇区,上海市,餐饮服务;中餐厅;火锅店,31.19490223422763,121.43698184808274
蜀大侠四川传统主义火锅(田林路店),田林路105号,徐汇区,上海市,餐饮服务;中餐厅;火锅店,31.171758451800557,121.4107393530925
海底捞火锅(古北时尚)(装修中),吴中路52号古北时尚2层201商铺,徐汇区,上海市,餐饮服务;中餐厅;火锅店,31.189766385101098,121.41079983039653
新辣道(上海星游城店),天钥桥路580号星游城4F层,徐汇区,上海市,餐饮服务;中餐厅;火锅店,31.187542709493993,121.43802865454914
蜀城巷子成都火锅(宜山店),中山西路2006号2幢111室-3,徐汇区,上海市,餐饮服务;中餐厅;火锅店,31.184053012429597,121.42145089248103
钢管厂五区小郡肝火锅串串香上海旗舰店,[],徐汇区,上海市,餐饮服务;中餐厅;火锅店,31.19132619157795,121.43766757311771
五区后门小郡肝串串香(大木桥店),斜土路街道大木桥路360号小郡肝串串火锅,徐汇区,上海市,餐饮服务;中餐厅;火锅店,31.19876201109996,121.45743548989452
聚羊阁(桂平店),桂平路299-2号,徐汇区,上海市,餐饮服务;中餐厅;火锅店|餐饮服务;中餐厅;北京菜,31.161830214741684,121.40202208938224
熊猫老灶火锅(延安西路店),延安西路1394号(定西路口),长宁区,上海市,餐饮服务;中餐厅;火锅店,31.211422554468616,121.41949011974391
红村(定西路店),定西路789号,长宁区,上海市,餐饮服务;中餐厅;火锅店,31.21008090396992,121.41918388035192
捞王火锅(凯旋路店),凯旋路1456号,长宁区,上海市,餐饮服务;中餐厅;火锅店,31.201570734839933,121.41541764696919
兜率宫涮羊肉(番禺店),番禺路504号,长宁区,上海市,餐饮服务;中餐厅;火锅店,31.203393751626155,121.42522839292224
哥老官重庆美蛙鱼头(定西路店),定西路798号2层,长宁区,上海市,餐饮服务;中餐厅;四川菜(川菜)|餐饮服务;中餐厅;火锅店,31.21122334158505,121.41917076591932
三人行骨头王汤煲火锅(东诸安浜路店),东诸安浜路141号,长宁区,上海市,餐饮服务;中餐厅;火锅店,31.220079748683048,121.42906094860268
豆捞坊(古北店),水城南路37号万科广场商务楼3层,长宁区,上海市,餐饮服务;中餐厅;火锅店,31.19664985321554,121.38892034655208
成都火锅,迎宾三路机场新村173号(近东航培训中心),长宁区,上海市,餐饮服务;中餐厅;火锅店,31.185430292709285,121.35073817609738
小肥羊火锅(延安西路店),延安西路1023-1033号大众金融大厦101单元,长宁区,上海市,餐饮服务;中餐厅;火锅店,31.21451192184681,121.42566307113397
干锅居(龙之梦店),长宁路1018号龙之梦购物中心7层7091-7097,长宁区,上海市,餐饮服务;中餐厅;火锅店,31.220920991971386,121.41200501330775
小辉哥火锅(百联西郊店),仙霞西路88号百联西郊购物中心F2层2101,长宁区,上海市,餐饮服务;中餐厅;火锅店,31.210641052678103,121.36507146656457
小辉哥火锅(星空店),虹桥路1665号星空广场5层,长宁区,上海市,餐饮服务;中餐厅;火锅店,31.202500320150236,121.3880692220085
鼎王无老锅,黄金城道677号5室,长宁区,上海市,餐饮服务;中餐厅;火锅店,31.196867085537715,121.39675449419181
新辣道(龙之梦购物中心),长宁路1018号龙之梦购物中心F6层6048/6201A,长宁区,上海市,餐饮服务;中餐厅;火锅店,31.221184043223193,121.41227720298566
鱼之梦特色.火锅,仙霞路661号,长宁区,上海市,餐饮服务;中餐厅;火锅店,31.208392139735455,121.38290679899661
逸品锅海鲜火锅,延安西路2635号美丽华花园AB幢B1层(近水城南路),长宁区,上海市,餐饮服务;中餐厅;火锅店,31.19914219002079,121.38753777301302
左庭右院(西郊百联店),仙霞西路88号百联西郊购物中心F3层,长宁区,上海市,餐饮服务;中餐厅;火锅店,31.210995947400264,121.36664216564631
大龙燚火锅(娄山关路店),娄山关路882号-884号,长宁区,上海市,餐饮服务;中餐厅;火锅店,31.216943491650756,121.40036396332502
嗨锅(中山公园店),定西路1550号2层(近愚园路),长宁区,上海市,餐饮服务;中餐厅;火锅店,31.21964857485979,121.41726593116503
瓜瓜串(暮色店),安顺路83号一楼(定西路),长宁区,上海市,餐饮服务;中餐厅;火锅店,31.202974276408593,121.41803620785117
辉哥火锅(虹桥路店),虹古路1829弄10号,长宁区,上海市,餐饮服务;中餐厅;火锅店,31.20114360865114,121.38470420911216
世亮火锅,淞虹路938号福缘湾九华2号楼2205,长宁区,上海市,餐饮服务;中餐厅;火锅店,31.20579011924964,121.36002078519644
季悦火锅(虹桥迎宾馆店),虹桥路1591号虹桥迎宾馆内6号楼2层(近水城南路),长宁区,上海市,餐饮服务;中餐厅;火锅店,31.204366766027515,121.38977232488907
周氏热气羊肉火锅.龙虾店,安化路399号-1号,长宁区,上海市,餐饮服务;中餐厅;火锅店,31.216649270890315,121.41757451958078
新夏季热气涮羊肉,定西路781号(近延安中路),长宁区,上海市,餐饮服务;中餐厅;火锅店,31.20994397187693,121.41918589457875
小聚鱼悦,安顺路182号,长宁区,上海市,餐饮服务;中餐厅;火锅店,31.2029185699166,121.41190150008615
洞子张老匠火锅(汇金店),天山路900号汇金百货F6层,长宁区,上海市,餐饮服务;中餐厅;火锅店,31.213485141694605,121.40035626345527
井格老灶火锅(天山百盛店),天山路789号百盛优客城市广场东楼F5层,长宁区,上海市,餐饮服务;中餐厅;火锅店,31.21257642594062,121.39789612121244
庄老幺火锅(娄山关路店),娄山关路858号(艾尚快捷旅店2楼),长宁区,上海市,餐饮服务;中餐厅;火锅店,31.216302776418022,121.40018299197999
大渝火锅(长宁来福士东区),长宁路1139号长宁来福士东区F6层,长宁区,上海市,餐饮服务;中餐厅;火锅店,31.217558560858162,121.4102980630733
皇城根老北京火锅(中山公园店),宣化路300号华宁国际广场4层,长宁区,上海市,餐饮服务;中餐厅;火锅店,31.219410098866156,121.41773044692151
老北京热气羊肉羊蝎子涮锅,平塘路223号,长宁区,上海市,餐饮服务;中餐厅;火锅店,31.220371366248614,121.35985279586772
五行蜀二私房火锅,宋园路109号3楼,长宁区,上海市,餐饮服务;中餐厅;火锅店,31.193404413461575,121.40862609865293
蛙遇(百联西郊购物中心),仙霞西路88号百联西郊购物中心F2层2110,长宁区,上海市,餐饮服务;中餐厅;火锅店,31.210618316687068,121.36567059186284
讲究涮羊肉,延安西路1228弄2号嘉利大厦1层1E,长宁区,上海市,餐饮服务;中餐厅;火锅店,31.211690568448965,121.42339907184243
老重庆麻辣火锅,昭化路116号,长宁区,上海市,餐饮服务;中餐厅;火锅店,31.213647238844125,121.42122103115715
南门涮肉(中山公园店),定西路1313号鑫茂商厦2楼202室,长宁区,上海市,餐饮服务;中餐厅;火锅店,31.218866862335954,121.41717089928889
龙虾风暴(安龙路总店),安龙路500-3号,长宁区,上海市,餐饮服务;中餐厅;火锅店|餐饮服务;中餐厅;海鲜酒楼,31.20666602066386,121.38283400203818
老北京涮羊肉店,番禺路504号,长宁区,上海市,餐饮服务;中餐厅;火锅店,31.203595620128038,121.42520133568185
海底捞火锅(汇金百货店),天山路900号汇金百货5F-01商铺海底捞火锅,长宁区,上海市,餐饮服务;中餐厅;火锅店,31.213301243642146,121.40047329791705
井格(龙之梦购物中心),长宁路1018号龙之梦购物中心蓝中庭B2005号,长宁区,上海市,餐饮服务;中餐厅;火锅店,31.22147209536927,121.41256340569429
潮卢牛肉火锅,剑河路545号,长宁区,上海市,餐饮服务;中餐厅;火锅店|餐饮服务;中餐厅;潮州菜,31.211646048384786,121.36391011581249
潮阿牛(百盛优客城市广场东楼),天山路789号百盛优客城市广场东楼F5层,长宁区,上海市,餐饮服务;中餐厅;火锅店,31.212751343729593,121.39805311065005
椒羞串串,延安西路548弄92号,长宁区,上海市,餐饮服务;中餐厅;火锅店,31.22002489965255,121.43123869454196
阿久Q,武夷路351号D1室,长宁区,上海市,餐饮服务;中餐厅;火锅店,31.21511123796053,121.4189181381557
凑凑火锅·茶憩(长宁来福士西区),长宁路1139号长宁来福士西区F4层,长宁区,上海市,餐饮服务;中餐厅;火锅店,31.218440577158724,121.40924829911883
潮栖(长宁来福士东区),长宁路1139号长宁来福士东区B1层,长宁区,上海市,餐饮服务;中餐厅;火锅店,31.21824810740733,121.41007184999374
都来涮火锅(长宁支路店),长宁支路260号(近江苏北路),长宁区,上海市,餐饮服务;中餐厅;火锅店,31.226842554943925,121.41980414939232
盆鱼宴(天山缤谷店),天山路341号缤谷广场F3层305,长宁区,上海市,餐饮服务;中餐厅;火锅店,31.216243030271897,121.38188387810426
四川香天下火锅(天山店),芙蓉江路367号,长宁区,上海市,餐饮服务;中餐厅;火锅店,31.216831216555935,121.39157661825479
坎爷秘制火锅(来福士2店),长宁路1189号来福士广场东区4层,长宁区,上海市,餐饮服务;中餐厅;火锅店,31.21924446160275,121.40975355251967
德庄火锅(天山路旗舰店),"天山路762号泓鑫时尚广场中区3楼,地铁2号线娄山关路站4号出口上盖",长宁区,上海市,餐饮服务;中餐厅;火锅店,31.213483994523525,121.39729703607125
小龙坎老火锅(玫瑰坊店),长宁路890号玫瑰坊1层F27室、2层F58室,长宁区,上海市,餐饮服务;中餐厅;火锅店,31.221122716158884,121.41323498774577
小辉哥火锅(虹桥南丰城北区),遵义路150号虹桥南丰城北区F5层,长宁区,上海市,餐饮服务;中餐厅;火锅店,31.210059209685276,121.40282810472026
鸿羊居热气涮羊肉(水城店),水城路742号(近天山路),长宁区,上海市,餐饮服务;中餐厅;火锅店,31.215051633613662,121.38720155765051
辛都麻辣香锅(金虹桥商场),茅台路179号金虹桥商场B2层096&097&099&100,长宁区,上海市,餐饮服务;中餐厅;火锅店,31.21032151574968,121.39828133144474
闻签烤物匠人(定西路店),定西路790号全家旁2楼(近延安西路),长宁区,上海市,餐饮服务;中餐厅;火锅店,31.210824632536482,121.41927391986837
海底捞火锅(长宁路店),长宁路1018号龙之梦购物中心8层8190-8191、9005,长宁区,上海市,餐饮服务;中餐厅;火锅店,31.220449887804598,121.4114836581843
东发道朱雀打边炉,凯旋路1290号2层,长宁区,上海市,餐饮服务;中餐厅;火锅店,31.20438475763219,121.41463667251573
放羊娃羊肉火锅(北新泾店),剑河路425号-429号112室、113室、114室、115室,长宁区,上海市,餐饮服务;中餐厅;火锅店,31.215661034696435,121.36321183422169
红料理|串串有瘾(天山店),天山路345号缤谷广场东座4层410室,长宁区,上海市,餐饮服务;中餐厅;火锅店,31.21567793662523,121.38408134876389
牛牛火锅HolyCow潮汕特色火锅(缤谷店),天山路341号缤谷广场3层,长宁区,上海市,餐饮服务;中餐厅;火锅店,31.216426974518797,121.38183589907
齐民市集(上海高岛屋百货),虹桥路1438号上海高岛屋百货7F层,长宁区,上海市,餐饮服务;中餐厅;火锅店,31.199321879551995,121.39873831591572
左庭右院(龙之梦购物中心),长宁路1018号龙之梦购物中心F6层6035、6037、6041、6043,长宁区,上海市,餐饮服务;中餐厅;火锅店,31.221416545793936,121.41166871298101
潮汕牛肉火锅(长宁支路),长宁支路210之2-3,长宁区,上海市,餐饮服务;中餐厅;火锅店,31.227635902844565,121.42051994371708
哈尼石锅鱼火锅(长宁来福士南区),长宁路1139号长宁来福士东区F4层,长宁区,上海市,餐饮服务;中餐厅;火锅店,31.21746342306649,121.40996784886207
基遇码头港式打边炉,定西路784号,长宁区,上海市,餐饮服务;中餐厅;火锅店,31.210583822877922,121.41935103033933
蜀大侠四川传统主义火锅(巴黎春天天山店),天山路762-780号巴黎春天天山店3层,长宁区,上海市,餐饮服务;中餐厅;火锅店,31.21363993020288,121.39691902825886
卢记麻辣鸳鸯火锅(森晟世洋国际广场店),延安西路3006号森晟世洋国际广场F1层,长宁区,上海市,餐饮服务;中餐厅;火锅店,31.193375999083496,121.37929301897917
溯芬串串香火锅(定西路店),安化路与定西路交叉口南100米,长宁区,上海市,餐饮服务;中餐厅;火锅店,31.215842456173235,121.41845655374662
温野菜日本涮涮锅(中山公园龙之梦店),长宁路1018号龙之梦购物中心七层7206B,长宁区,上海市,餐饮服务;中餐厅;火锅店,31.220836115530634,121.41213512181552
椰庭(虹桥南丰城南区),遵义路100号虹桥南丰城南区F6层,长宁区,上海市,餐饮服务;中餐厅;火锅店,31.20898477278515,121.40302325489888
海底捞火锅(天山西路店),天山西路138号馥邦汇2层,长宁区,上海市,餐饮服务;中餐厅;火锅店,31.219308221713195,121.36812638268832
海底捞火锅(西郊百联店),仙霞西路88号西郊百联购物中心3层3113-3114室,长宁区,上海市,餐饮服务;中餐厅;火锅店,31.21063231612754,121.3656655978982
沈万财·火锅鸡(定西路大鸡哥店),定西路790号,长宁区,上海市,餐饮服务;中餐厅;火锅店,31.210802655661297,121.41928693687198
羊蝎子涮锅,安顺路182号,长宁区,上海市,餐饮服务;中餐厅;火锅店,31.202915565041277,121.41189149266458
奇门涮肉(中山公园店),愚园路1389号,长宁区,上海市,餐饮服务;中餐厅;火锅店,31.220624032398227,121.41828995273364
老城区战炉炭火蛙锅,新泾镇淞虹路769号(仙霞西路与淞虹路交叉口西南角),长宁区,上海市,餐饮服务;中餐厅;火锅店,31.21050183331982,121.35792989614883
海底捞火锅(长宁路店),[],长宁区,上海市,餐饮服务;中餐厅;火锅店,31.22143335211447,121.41136748627457
花开花落读不懂的流年,愚园路1389号,长宁区,上海市,餐饮服务;中餐厅;火锅店,31.22060503861308,121.4182869510613
袁老四老火锅(淮海路店),淮海西路678号2层,长宁区,上海市,餐饮服务;中餐厅;火锅店,31.19822444053188,121.41785742591969
泥巴小院市井火锅,[],长宁区,上海市,餐饮服务;中餐厅;火锅店,31.217116046909112,121.36579983933115
蜀串王老成都串串香(剑河路店),剑河路425-429号106室、107室,长宁区,上海市,餐饮服务;中餐厅;火锅店|餐饮服务;中餐厅;四川菜(川菜),31.215433164373117,121.36319587862823
蜀记麻辣香锅(神州智慧天地店),天山西路567号神州智慧天地1层R107号,长宁区,上海市,餐饮服务;中餐厅;火锅店,31.21980588394484,121.35237109320632
红料理|串串有瘾(万航渡路店),万航渡路550号,长宁区,上海市,餐饮服务;中餐厅;火锅店,31.227450361879928,121.42982659748905
蜀九香火锅酒楼(延安西路店),延安西路与延安高架路出口交叉口南100米,长宁区,上海市,餐饮服务;中餐厅;火锅店,31.213545040671132,121.42618594175521
左庭右院(虹桥南丰城南区),遵义路100号虹桥南丰城南区F5层,长宁区,上海市,餐饮服务;中餐厅;火锅店,31.208904928662154,121.40350140905811
上上谦(龙之梦购物中心),长宁路1018号龙之梦购物中心5层5087,长宁区,上海市,餐饮服务;中餐厅;火锅店,31.22078635894229,121.41247239247429
逸春园火锅点心(长宁来福士东区),长宁路1139号长宁来福士东区F5层,长宁区,上海市,餐饮服务;中餐厅;火锅店,31.217842570103908,121.41055221355576
渝火老城区炭火蛙锅(定西路店),定西路782号凯阳大厦底商,长宁区,上海市,餐饮服务;中餐厅;火锅店,31.210488895714356,121.41937907122845
百味记小郡肝砂罐串串(中山公园店),定西路1313号鑫茂商厦2楼,长宁区,上海市,餐饮服务;中餐厅;火锅店,31.21869998859803,121.41722497056486
香港柒胜海鲜火锅(虹桥万豪店),剑河路2378号甲,长宁区,上海市,餐饮服务;中餐厅;火锅店,31.192161698541636,121.3714794083572
无老锅养生(步行街),黄金城道677号,长宁区,上海市,餐饮服务;中餐厅;火锅店,31.196873081274415,121.39678549265065
就是泰泰式火锅(虹桥南丰城北区),遵义路100号虹桥南丰城北区F5层,长宁区,上海市,餐饮服务;中餐厅;火锅店,31.209865406131005,121.40326525118998
正宗潮汕虹村打边炉(定西路店),定西路791号,长宁区,上海市,餐饮服务;中餐厅;火锅店,31.2101698246414,121.41914582873348
老门框爆肚涮肉(中山公园店),定西路1115号1层13号商铺,长宁区,上海市,餐饮服务;中餐厅;火锅店,31.214011082754965,121.41818741447219
牛牛正宗潮汕热气牛肉料理火锅(缤谷广场),天山路341号缤谷广场F3层,长宁区,上海市,餐饮服务;中餐厅;火锅店,31.216349894129813,121.38201276994505
聚羊阁(剑河店),剑河路569号底层(西郊百联对面),长宁区,上海市,餐饮服务;中餐厅;火锅店,31.210924243482733,121.36402800007119
潮汕老二肥牛海鲜火锅(虹梅店),虹梅路3338弄2号,长宁区,上海市,餐饮服务;中餐厅;火锅店,31.192955963547956,121.3809936099741
聚羊阁(天山店),天山西路138号馥邦购物中心1层,长宁区,上海市,餐饮服务;中餐厅;火锅店,31.21953198392465,121.36824020873233
海底捞火锅(北京西路店),北京西路1068号食博汇3层,静安区,上海市,餐饮服务;中餐厅;火锅店,31.232154899290435,121.44999508936034
泰煌火锅(闸北店),中华新路481号,静安区,上海市,餐饮服务;中餐厅;火锅店,31.255783120426777,121.46095398184472
海底捞火锅(沪太路店),沪太路785号新华园B座苏宁电器5层,静安区,上海市,餐饮服务;中餐厅;火锅店,31.26792608599538,121.43959604183841
川流不息(彭浦店),平顺路225-1号,静安区,上海市,餐饮服务;中餐厅;火锅店,31.314651030145157,121.44764190862796
老北京涮羊肉,临汾路42号,静安区,上海市,餐饮服务;中餐厅;火锅店,31.312862746043496,121.46217276585622
聚辣火锅(大宁店),北宝兴路152号,静安区,上海市,餐饮服务;中餐厅;火锅店,31.27450354214017,121.46114695348162
阿福苏州藏书羊肉,中华新路430号,静安区,上海市,餐饮服务;中餐厅;火锅店,31.25635211252467,121.46339939460417
辉哥火锅(巨鹿店),巨鹿路795号,静安区,上海市,餐饮服务;中餐厅;火锅店,31.22174400881061,121.44635372735748
品捞坊,共和新路1988号大宁国际商业广场12座5层上海大宁福朋喜来登集团酒店,静安区,上海市,餐饮服务;中餐厅;火锅店,31.275756876452167,121.44730643053197
有骨气养生骨头锅(延长店),延长中路581号1层(近万荣路),静安区,上海市,餐饮服务;中餐厅;火锅店,31.270739707235553,121.4447305410495
小辉哥火锅(大宁国际店),共和新路1998号大宁国际商业广场11座5层,静安区,上海市,餐饮服务;中餐厅;火锅店,31.276649802694113,121.44697251778659
牛阿哥打边炉(茂名北路店),茂名北路94号,静安区,上海市,餐饮服务;中餐厅;火锅店,31.227466671823006,121.45594073437198
无老锅(静安店),北京西路1829-1号,静安区,上海市,餐饮服务;中餐厅;火锅店,31.225322781226573,121.4376746460343
Mo-Mo牧场(大悦城店),西藏北路198号大悦城二期北楼7楼(曲阜路),静安区,上海市,餐饮服务;中餐厅;火锅店,31.246205823379462,121.46765065813217
豆捞坊(上海大宁店),共和新路1988号大宁国际商业广场9座3层,静安区,上海市,餐饮服务;中餐厅;火锅店,31.27646360436171,121.44779259415176
红辣椒(静安店),芷江西路490号近普善路五月花生活广场西区5楼,静安区,上海市,餐饮服务;中餐厅;火锅店,31.258457266330424,121.4523290364628
潮汕牛府(恒丰路店),天目西路433号恒汇国际大厦2层,静安区,上海市,餐饮服务;中餐厅;火锅店,31.247943986248103,121.447799075542
稻香(晶品),愚园路68号晶品L6层L6-15,静安区,上海市,餐饮服务;中餐厅;广东菜(粤菜)|餐饮服务;中餐厅;火锅店,31.22739150305763,121.44136446233955
杨同兴(石门二路店),石门二路215号,静安区,上海市,餐饮服务;中餐厅;火锅店,31.236195463208045,121.4558687785274
小辉哥(上海大悦城北座),西藏北路166号上海大悦城北座L7层N701,静安区,上海市,餐饮服务;中餐厅;火锅店,31.245715148645452,121.46731662973397
樱桃捞火锅(静安店),南京西路698号(时尚698)6楼,静安区,上海市,餐饮服务;中餐厅;火锅店,31.23320400227684,121.45963698386855
奇门涮肉(南京西路店),南京西路恒基688广场L105,静安区,上海市,餐饮服务;中餐厅;火锅店,31.233659196435564,121.45979942751833
小广东家常菜,芷江中路458,静安区,上海市,餐饮服务;中餐厅;广东菜(粤菜)|餐饮服务;中餐厅;火锅店,31.260801008665446,121.46525680103504
潮记牛道火锅(中兴路店),中兴路1116号,静安区,上海市,餐饮服务;中餐厅;火锅店,31.254123112943375,121.4606602409874
重庆铭府火锅(临汾路店),临汾路818号2层,静安区,上海市,餐饮服务;中餐厅;火锅店,31.312793835615064,121.44673479691524
涮久久火锅,长兴路113号1层,静安区,上海市,餐饮服务;中餐厅;火锅店,31.252064995501893,121.45657743337003
涮匠小火锅(静安店),陈家宅路149号101室,静安区,上海市,餐饮服务;中餐厅;火锅店,31.26612754847666,121.45932422430255
牛潮汕牛肉火锅(洛川店),洛川东路374号,静安区,上海市,餐饮服务;中餐厅;火锅店,31.2715567488696,121.45666701081022
凑凑(晶品),愚园路68号晶品L4层L4-13,静安区,上海市,餐饮服务;中餐厅;火锅店,31.227544478884337,121.44243989558424
棠珑一号海鲜火锅,静安寺街道襄阳北路1号会馆三楼,静安区,上海市,餐饮服务;中餐厅;火锅店,31.222811750720552,121.44976328972785
海底捞火锅(柳营路店),柳营路盛源生活广场4楼海底捞,静安区,上海市,餐饮服务;中餐厅;火锅店,31.265645837115475,121.45085346027689
洪员外麻辣牛杂火锅(晶品),愚园路68号晶品L4层L4-26,静安区,上海市,餐饮服务;中餐厅;火锅店,31.22750512779867,121.44119306738696
向天鹅·鹅肠老火锅,曹家渡街道延平路128号1幢A座一楼二楼,静安区,上海市,餐饮服务;中餐厅;火锅店,31.230822370138778,121.43659995947617
偶素·蔬食火锅,大宁音乐广场I座101,静安区,上海市,餐饮服务;中餐厅;火锅店,31.283569345278202,121.43950348470568
骨又几简骨火锅,彭浦镇阳城路183-2永和大楼2楼,静安区,上海市,餐饮服务;中餐厅;火锅店,31.28590344400699,121.4233896045448
海底捞火锅(场中路店),彭浦新村场中路2018号中建瑞贝庭3楼海底捞火锅,静安区,上海市,餐饮服务;中餐厅;火锅店,31.306719424274178,121.44733482233592
得亿火锅,茂名北路245弄1号201室,静安区,上海市,餐饮服务;中餐厅;火锅店,31.22966388739506,121.45477124618942
焱格格素食料理火锅(常德路店),800秀常德路800号A4-1层,静安区,上海市,餐饮服务;中餐厅;火锅店,31.23588807663974,121.43891735430657
花马天堂古道火锅,巨鹿路758号3层,静安区,上海市,餐饮服务;中餐厅;火锅店,31.222493459994606,121.44722081817203
渝香九品,灵石路889号,静安区,上海市,餐饮服务;中餐厅;火锅店,31.279872350899584,121.42849882691138
点点锅(五月花生活广场店),芷江西路406号五月花生活广场1层,静安区,上海市,餐饮服务;中餐厅;火锅店,31.25860249324803,121.4537659559625
嘻唰唰&羊蝎子火锅(灵石路店),运城路627号(广中西路口),静安区,上海市,餐饮服务;中餐厅;火锅店,31.277431558716014,121.42935846454851
祥福居老北京羊羯子涮锅,三泉路407号,静安区,上海市,餐饮服务;中餐厅;火锅店,31.309888619083605,121.43651492705743
九牛2炉鲜牛肉火锅(昌平路店),昌平路317号-3号,静安区,上海市,餐饮服务;中餐厅;火锅店,31.238618871932243,121.44473031880666
潮汕鲜牛肉火锅,中兴路1233弄3幢(靠近共和新路),静安区,上海市,餐饮服务;中餐厅;火锅店,31.25410536791932,121.46075853789452
富公馆火锅,石门一路与威海路交叉口,静安区,上海市,餐饮服务;中餐厅;火锅店,31.22931738177449,121.45906362101177
我家酸菜鱼,中山北路647号,静安区,上海市,餐饮服务;中餐厅;火锅店,31.262593652002675,121.45543226800177
武崽儿老火锅,共和新路2548号1层,静安区,上海市,餐饮服务;中餐厅;火锅店,31.284150340569663,121.44680645505784
飞翼有机菜园体验馆(静安店),余姚路577号、579号,静安区,上海市,餐饮服务;中餐厅;火锅店,31.234348266079433,121.42918792190638
热气羊肉双叶居(安远路店),安远路与常德路交叉口西南50米,静安区,上海市,餐饮服务;中餐厅;火锅店,31.239567689923355,121.43500301782456
高老九(静安大融城3号楼),沪太路1111弄静安大融城3号楼F2层,静安区,上海市,餐饮服务;中餐厅;火锅店,31.282006726590463,121.42481595818704
洞子张老匠火锅(共和新路店),共和新路3388号汇客美食娱乐广场2层(近大润发),静安区,上海市,餐饮服务;中餐厅;火锅店,31.300599901344704,121.4439450828558
今日牛事潮州牛肉火锅(静安寺店),胶州路709号,静安区,上海市,餐饮服务;中餐厅;火锅店,31.237245306409598,121.43473068836487
锅太泰(静安嘉里中心南区),南京西路1515号静安嘉里中心南区F3层S3-06,静安区,上海市,餐饮服务;中餐厅;火锅店,31.224912398137732,121.44482272518158
山海精蟹粉火锅(静安店),万航渡路115号,静安区,上海市,餐饮服务;中餐厅;火锅店,31.22697601127859,121.4376765067555
老上海面馆,长乐路688号(近富民路),静安区,上海市,餐饮服务;中餐厅;火锅店,31.21992030559929,121.44846318296177
巴四老城区(上海大悦城南座),西藏北路166号上海大悦城南座L9层S905,静安区,上海市,餐饮服务;中餐厅;火锅店,31.24515142978023,121.46769990661149
嘻涮涮羊蝎子火锅(运城路店),运城路627号(广中西路口),静安区,上海市,餐饮服务;中餐厅;火锅店,31.277378555636616,121.42934043888788
川麻婆泥锅涮肚,俞泾港路11号108广场1楼,静安区,上海市,餐饮服务;中餐厅;火锅店,31.268378605417283,121.46133003382461
莱兜莱串串香,"中山北路756号(达人湾底层商铺,靠近大统路)",静安区,上海市,餐饮服务;中餐厅;火锅店,31.261936366825932,121.45519064318259
羊大爷涮肉坊(静安店),海宁路1399号众昌金城大厦二楼201室、208室,静安区,上海市,餐饮服务;中餐厅;火锅店,31.245965897791493,121.46385068367292
牛很鲜潮汕牛肉火锅(上海静安店),万航渡路107号(北京西路口),静安区,上海市,餐饮服务;中餐厅;火锅店,31.226908341854948,121.43784787005977
牛上市潮汕牛肉火锅(万航渡路店),万航渡路192号(近乌鲁木齐北路或新闸路100米),静安区,上海市,餐饮服务;中餐厅;火锅店,31.226950833880757,121.43640089140963
南角亭热气涮羊肉,长乐路688号(近富民路),静安区,上海市,餐饮服务;中餐厅;火锅店,31.219946359762364,121.44849426013869
蜀大侠成都火锅(城市新汇广场店),共和新路4762号城市新汇广场3F(共康路地铁站3号口对面),静安区,上海市,餐饮服务;中餐厅;火锅店,31.32048856087124,121.4420349164096
攀成钢小月君肝串串香,中兴路1098号地铁8号线中兴路站3号口步行400m,静安区,上海市,餐饮服务;中餐厅;火锅店,31.25415377332183,121.46092804382508
捞王火锅锅物料理,吴江路269号湟普汇三楼,静安区,上海市,餐饮服务;中餐厅;火锅店,31.230832419052557,121.45437503916035
蜀大侠火锅(江宁路店),江宁路445号时美大厦2楼,静安区,上海市,餐饮服务;中餐厅;火锅店,31.236458680523125,121.4475584603322
呷哺呷哺(静安大融城1号楼),沪太路1111弄静安大融城1号楼B1层,静安区,上海市,餐饮服务;中餐厅;火锅店,31.282085369708902,121.4209667574113
每日牛事潮汕牛肉火锅,万荣路115号每日牛事,静安区,上海市,餐饮服务;中餐厅;火锅店,31.272641764616562,121.44416201889507
九品一锅风味小炒火锅,华盛路天目中路790-1(华盛路不夜城公园内),静安区,上海市,餐饮服务;中餐厅;火锅店,31.247268886362804,121.45605535539117
小辉哥火锅(静安大融城1号楼),沪太路1111弄静安大融城1号楼F3层,静安区,上海市,餐饮服务;中餐厅;火锅店,31.282016134187966,121.42166464794899
重庆麻辣烫(少年村店),场中路3135-7号(近少年村路),静安区,上海市,餐饮服务;中餐厅;火锅店,31.30476579239998,121.42499123096974
公子安.渔火锅,常熟路98号1楼,静安区,上海市,餐饮服务;中餐厅;火锅店,31.218816797522035,121.44306710051197
乔老爷驴肉馆小火锅,普善路996号(老沪太路),静安区,上海市,餐饮服务;中餐厅;火锅店,31.269914581994094,121.44597362896224
汇蜀川西坝子火锅餐厅,江场路1212号协信星光广场北区B1楼,静安区,上海市,餐饮服务;中餐厅;火锅店,31.299724963900864,121.45402512464719
二门市市井火锅,中兴路1098号-1号,静安区,上海市,餐饮服务;中餐厅;火锅店,31.254162984201077,121.46101329994212
行家海鲜火锅酒家,万航渡路282号,静安区,上海市,餐饮服务;中餐厅;火锅店,31.22716701165747,121.43475961816682
哈尼石锅鱼火锅(同乐坊店),同乐坊余姚路66号,静安区,上海市,餐饮服务;中餐厅;火锅店,31.238253128294215,121.43899231002598
苏州藏书羊肉馆,中华新路604号(中心医院斜对过),静安区,上海市,餐饮服务;中餐厅;火锅店,31.25539752871938,121.45782173893362
牛垚鲜牛肉火锅(静安大融城店),沪太路1111弄静安大融城1号楼F4层,静安区,上海市,餐饮服务;中餐厅;火锅店,31.282295287026912,121.42097074410371
双叶居热气羊肉,延安中路724号,静安区,上海市,餐饮服务;中餐厅;火锅店,31.226098601538048,121.4556420047598
尊牛汇和牛自助火锅(魔都旗舰店),南京西路1038号梅龙镇广场701-709室,静安区,上海市,餐饮服务;中餐厅;火锅店,31.23070430015235,121.45211986420011
新辣道鱼火锅(静安大融城1号楼),沪太路1111弄静安大融城1号楼F4层,静安区,上海市,餐饮服务;中餐厅;火锅店,31.282294697474903,121.42136223728225
鼎中鼎澳门豆捞,大润发超市3楼,静安区,上海市,餐饮服务;中餐厅;火锅店,31.268572960697043,121.46189673663385
小小腾,延安中路724号,静安区,上海市,餐饮服务;中餐厅;火锅店,31.226158230773972,121.45591878461839
随便餐厅,南京西路688号104单元,静安区,上海市,餐饮服务;中餐厅;火锅店,31.233506769184146,121.46000104102423
九牛二炉,中兴路1066号(近共和新路),静安区,上海市,餐饮服务;中餐厅;火锅店,31.254188297071202,121.46114168507725
吾意浓(南京西路店),南京西路702号1幢301,静安区,上海市,餐饮服务;中餐厅;火锅店,31.233047571568022,121.45943439645204
龙凤局,昌平路317号-2号,静安区,上海市,餐饮服务;中餐厅;火锅店,31.238623919952904,121.44475537850535
重庆老火锅,珠江路与平原路交叉口向东500米路北,静安区,上海市,餐饮服务;中餐厅;火锅店,31.22955702995765,121.44058052428106
红魔重庆美蛙火锅(静安大融城1号楼),沪太路1111弄静安大融城1号楼F3层,静安区,上海市,餐饮服务;中餐厅;火锅店,31.282238409596605,121.4210658681404
阿香婆烧鸡公,高平路209-3号,静安区,上海市,餐饮服务;中餐厅;火锅店,31.28337570221867,121.42443328828942
成都三官堂羊肉火锅,北宝兴路174号,静安区,上海市,餐饮服务;中餐厅;火锅店,31.2749019767779,121.460989443959
炉得香北京果木烤鸭火锅夜宵(汶水路店),汶水路708-1号,静安区,上海市,餐饮服务;中餐厅;火锅店,31.290153599242032,121.42329109912745
纸包鱼鸡公煲,虬江路867-877,静安区,上海市,餐饮服务;中餐厅;火锅店,31.254310045695686,121.4708995260827
羯王府羊蝎子火锅,愚园东路20号东海广场4号楼2楼,静安区,上海市,餐饮服务;中餐厅;火锅店,31.22836123710899,121.4445487705449
鸿姐老火锅,愚园东路20号(东海广场3号楼对面),静安区,上海市,餐饮服务;中餐厅;火锅店,31.228306222628227,121.44452872738398
重庆小厨,1266号恒隆广场5楼桃花源,静安区,上海市,餐饮服务;中餐厅;火锅店,31.229745704564188,121.4489315363901
锅SIr HOT POT,[],静安区,上海市,餐饮服务;中餐厅;火锅店,31.266472055808823,121.46807428205128
深红爱浅红串串香,民晏路51号,静安区,上海市,餐饮服务;中餐厅;火锅店,31.276866652694697,121.45714191973316
小宝火锅店,1788广场二楼,静安区,上海市,餐饮服务;中餐厅;火锅店,31.22469001038926,121.43877101114568
羊蝎子火锅,永和路427号附近,静安区,上海市,餐饮服务;中餐厅;火锅店,31.28935998134787,121.43666100695724
鹿角亭烤鸭,永兴路701号(共和新路口),静安区,上海市,餐饮服务;中餐厅;火锅店,31.252695687571048,121.45943571046045
熊猫钵钵鸡火锅,安远路681号底层、二层,静安区,上海市,餐饮服务;中餐厅;火锅店,31.237492695496798,121.4318572850484
上海铁板牛肉火锅,成田镇陈沙公路田中央路口,静安区,上海市,餐饮服务;中餐厅;火锅店,31.288503172674147,121.44662061660968
老北京热气涮羊肉海鲜烧烤(虬江路店),虬江路1000号聚源大厦底商,静安区,上海市,餐饮服务;中餐厅;火锅店,31.25355127280648,121.4686612852755
爱上六头鲍港式打边炉,万荣路700号C1-101,静安区,上海市,餐饮服务;中餐厅;火锅店,31.284280924373242,121.43716748491262
苏州嘉乐平顺店,彭浦新村镇平顺路245号平顺菜市场102号,静安区,上海市,餐饮服务;中餐厅;火锅店,31.314985565221978,121.44748147522954
鱼天地海鲜资造火锅(高平路店)(装修中),高平路88号雅悦新天地婚宴展会中心1楼近灵石路,静安区,上海市,餐饮服务;中餐厅;火锅店,31.279619502307057,121.42703450667305
马路边边串串香(昌平路店),昌平路477号(近莫泰168酒店西边20米处),静安区,上海市,餐饮服务;中餐厅;火锅店,31.237534535673987,121.44174444342927
渔千浪鲍鱼串串火锅,灵石路885号5幢1层D室,静安区,上海市,餐饮服务;中餐厅;火锅店,31.28093183546138,121.42844364453138
京味羊蝎子火锅店,平型关路1517号,静安区,上海市,餐饮服务;中餐厅;火锅店,31.29228806900602,121.45494032120786
新招鲜(中兴路店),中华新路486号,静安区,上海市,餐饮服务;中餐厅;火锅店,31.25563595509017,121.46125891471686
海底捞火锅(静安大融城3号楼),沪太路1111弄静安大融城3号楼F3层,静安区,上海市,餐饮服务;中餐厅;火锅店,31.28202376309709,121.42485200897454
捞王锅物料理(协信星光广场南里),寿阳路99弄18号协信星光广场南里2层S209号,静安区,上海市,餐饮服务;中餐厅;火锅店|餐饮服务;冷饮店;冷饮店,31.298653614961392,121.4536912930725
椒锅锅麻辣香锅冒菜(暂停营业),吴江路步行街178号2楼,静安区,上海市,餐饮服务;中餐厅;火锅店,31.232112912866448,121.45568761619037
京炉北京果木烤鸭火锅(大宁音乐广场店),万荣路777号大宁音乐广场E座2层201室,静安区,上海市,餐饮服务;中餐厅;火锅店,31.282299871022804,121.43894940068306
哥老馆(静安大融城1号楼),沪太路1111弄静安大融城1号楼F4层,静安区,上海市,餐饮服务;中餐厅;火锅店,31.2821782710076,121.42090867685431
好口福火锅店,塘沽路933号白马大厦东楼6层0601,静安区,上海市,餐饮服务;中餐厅;火锅店,31.247539632847406,121.47326997285134
草原牧娃冰煮鲜羊(灵石路店),彭浦镇灵石路851号5幢1层D、E室,静安区,上海市,餐饮服务;中餐厅;火锅店,31.280608173791244,121.42931511556908
小辉哥火锅(悦达889广场店),万航渡路悦达889号广场3层,静安区,上海市,餐饮服务;中餐厅;火锅店,31.231391864286547,121.42390906809744
珮姐老火锅(魔都旗舰直营店),茂名北路185号,静安区,上海市,餐饮服务;中餐厅;火锅店,31.228838965713614,121.45506714725397
mini火锅外送(沪太路店),沪太路785号新华园B座五层,静安区,上海市,餐饮服务;中餐厅;火锅店,31.268217508974104,121.43989667153281
上海浦西洲际酒店-五珍涮品,恒丰路500号浦西洲际酒店1层(近天目西路),静安区,上海市,餐饮服务;中餐厅;火锅店,31.246596256546137,121.44904637780292
凤鲜姐姐花胶鸡汤火锅荟馆,延平路98号-1,静安区,上海市,餐饮服务;中餐厅;火锅店,31.229856135884884,121.43736861855068
不二锅小火锅外送(上海店),寺街道长兴路117号,静安区,上海市,餐饮服务;中餐厅;火锅店,31.252110984710484,121.45658144089225
南门涮肉,灵石路885号6号楼,静安区,上海市,餐饮服务;中餐厅;火锅店,31.280835287052874,121.42874414615547
楼上海鲜肥牛火锅酒家(南汇路店),南汇路73号,静安区,上海市,餐饮服务;中餐厅;火锅店,31.231999670691174,121.45210671703644
23度不太冷椰子鸡火锅(共和路店),共和路219号嘉里企业公馆2楼(汉中路地铁站1号口),静安区,上海市,餐饮服务;中餐厅;火锅店,31.246494834595055,121.45332177627097
聚煲盆,陕西南路76号,静安区,上海市,餐饮服务;中餐厅;火锅店,31.22418531771079,121.4521093978197
小辉哥火锅(协信星光广场北里),江场路1228弄21号协信星光广场北里F3层NL313,静安区,上海市,餐饮服务;中餐厅;火锅店,31.300276916608524,121.45279569430305
鲁班七号火锅外卖(静安店),南瓜车造型(西藏北路店)民和路187号,静安区,上海市,餐饮服务;中餐厅;火锅店,31.269804550335614,121.4615485730694
名品美食休闲广场(名品商厦店),秣陵路258号友谊服饰毛杉商场B1楼,静安区,上海市,餐饮服务;中餐厅;火锅店,31.248939524760072,121.45011094443365
嗨虾热气涮羊肉(静安大沽路店),[],静安区,上海市,餐饮服务;中餐厅;火锅店,31.227329527239302,121.46233361302856
新花城海鲜火锅(乌鲁木齐北路店),乌鲁木齐北路446号,静安区,上海市,餐饮服务;中餐厅;火锅店,31.22065676685637,121.4386911901498
楼上,[],静安区,上海市,餐饮服务;中餐厅;火锅店,31.23616229138101,121.44586227421323
钢管厂五区小郡肝火锅串串香(大融城店),沪太路1111号大融城2号楼B1层,静安区,上海市,餐饮服务;中餐厅;火锅店,31.281987325458967,121.42362326835551
五区后门小郡肝串串香(阳曲路店),阳曲路610号,静安区,上海市,餐饮服务;中餐厅;火锅店,31.316999822186915,121.45552884659274
钢管厂五区小郡肝串串香火锅(南京西路店),南汇路与奉贤路交叉口45米处钢管厂五区,静安区,上海市,餐饮服务;中餐厅;火锅店,31.231699809664867,121.45254793782655
香港柒胜海鲜火锅(江宁路店),江宁路495号(康定路口),静安区,上海市,餐饮服务;中餐厅;火锅店,31.237099102463592,121.44694587003947
沪太路345号趣海龙虾烧烤(沪太路吉刻联盟),沪太路351号沪太路345号吉刻联盟内,静安区,上海市,餐饮服务;中餐厅;火锅店,31.257199229588483,121.4479616876659
觅姐汤可以喝的麻辣烫(闸北公园店),共和新路1481号红墙创意园1号楼,静安区,上海市,餐饮服务;中餐厅;火锅店,31.269213433737686,121.45399266824145
京片儿老李羊羯子涮锅,北宝兴路182号,静安区,上海市,餐饮服务;中餐厅;火锅店,31.27486909435442,121.46103057079984
飞翼源有机蔬菜小火锅(余姚路店),余姚路577号近武宁南路,静安区,上海市,餐饮服务;中餐厅;火锅店,31.23435126609518,121.42918892331855
海底捞火锅(长寿路店),长寿路街道468号中环商务大厦A座四楼,普陀区,上海市,餐饮服务;中餐厅;火锅店,31.241995162003914,121.43219851245092
捞王火锅锅物料理(平利店),平利路86号(近灵石路),普陀区,上海市,餐饮服务;中餐厅;火锅店,31.272177322285632,121.42264278712067
台北吴记麻辣火锅(曹杨店),兰溪路152号2层,普陀区,上海市,餐饮服务;中餐厅;火锅店,31.242295635751905,121.39957164689126
嗨锅(梅川路总店),梅川路1412号,普陀区,上海市,餐饮服务;中餐厅;火锅店,31.246471317909318,121.3752073976446
煲宫(长寿店),陕西北路1622号,普陀区,上海市,餐饮服务;中餐厅;火锅店,31.246982784493103,121.43466271205214
捞王锅物料理(长寿路店),胶州路883号(新会路),普陀区,上海市,餐饮服务;中餐厅;火锅店,31.239156767092506,121.43240513575807
川东大院(大华路店),大华路88弄33号,普陀区,上海市,餐饮服务;中餐厅;火锅店,31.26866272896462,121.41075592824431
颐品居(长寿路店),长寿路822弄97号(家乐福),普陀区,上海市,餐饮服务;中餐厅;火锅店,31.23724170324568,121.42350499762235
大龙燚火锅(梅川路店),梅川路1382号,普陀区,上海市,餐饮服务;中餐厅;火锅店,31.246172940813107,121.37577182672223
御锅宴(西康路店),西康路1068号(顺风大酒店边),普陀区,上海市,餐饮服务;中餐厅;火锅店,31.243373667449358,121.43720911828156
大龙燚火锅(长寿路店),长寿路396-,普陀区,上海市,餐饮服务;中餐厅;火锅店,31.243056987087208,121.43368517968099
田园山礼,常德路1235号(百果园旁边),普陀区,上海市,餐饮服务;中餐厅;火锅店,31.24275239113896,121.43191593448446
椰子不语(上海环球港),中山北路3300号环球港花园大厅2层L2126,普陀区,上海市,餐饮服务;中餐厅;火锅店,31.23563816727205,121.40848333740642
海底捞火锅(大华店),大华一路239弄大华虎城商务中心2号楼301室,普陀区,上海市,餐饮服务;中餐厅;火锅店,31.270736507600503,121.41016333741064
老李羊羯子火锅,江宁路1318号(燕兴大厦外围),普陀区,上海市,餐饮服务;中餐厅;火锅店,31.248433023979512,121.43699423812932
高桥海鲜馆(延长店),延长西路168号(骊山路口),普陀区,上海市,餐饮服务;中餐厅;火锅店,31.265123494244346,121.43569015667192
老德盛昌魏好龙虾,志丹路186号,普陀区,上海市,餐饮服务;中餐厅;火锅店,31.263583816407536,121.4266553126917
海底捞火锅(118广场店),金沙江路1685号118广场3层,普陀区,上海市,餐饮服务;中餐厅;火锅店,31.234023593739515,121.37350336746978
藏书羊肉,叶家宅南路48号,普陀区,上海市,餐饮服务;中餐厅;火锅店,31.23782998246199,121.4286917971377
新招鲜(宜川路店),甘泉路街道宜川路348号,普陀区,上海市,餐饮服务;中餐厅;火锅店,31.265410006516127,121.43232571178774
龙一海鲜(普陀店),古浪路55弄11号,普陀区,上海市,餐饮服务;中餐厅;火锅店,31.283506372819513,121.39224361186932
龙窑砂锅串串香(新会店),"新会路393号(近常德路,地铁长寿站5号口附近)",普陀区,上海市,餐饮服务;中餐厅;火锅店,31.240428385965533,121.43318045882823
龙窑砂锅串串香(宜川店),宜川路101号(宜川公园旁),普陀区,上海市,餐饮服务;中餐厅;火锅店,31.261962231625972,121.43530967760188
家人聚老北京涮羊肉,合阳路与新村路交叉口东北50米,普陀区,上海市,餐饮服务;中餐厅;火锅店,31.26929883865571,121.4345525623791
川香麻辣火锅(杨柳青路店),杨柳青路3号(金沙江路口),普陀区,上海市,餐饮服务;中餐厅;火锅店,31.234127367751878,121.3995843606701
高老九(上海环球港),中山北路3300号上海环球港B1层,普陀区,上海市,餐饮服务;中餐厅;火锅店,31.23618208008648,121.40881648817582
泰煌火锅(陶普店),雪松路338号,普陀区,上海市,餐饮服务;中餐厅;火锅店,31.285495510693416,121.349467952567
凑凑火锅(长风大悦城),大渡河路178号长风大悦城L2层L216-17,普陀区,上海市,餐饮服务;中餐厅;火锅店,31.223794189892725,121.39064531121527
潮香记潮汕牛肉火锅(梅川路店),梅川路步行街1424号(近真光路),普陀区,上海市,餐饮服务;中餐厅;火锅店,31.24661954688924,121.37488672997941
红魔重庆美蛙火锅(上海环球港),中山北路3300号上海环球港B1层B1258室,普陀区,上海市,餐饮服务;中餐厅;火锅店,31.236788565291256,121.40832714629877
牛来了潮汕牛肉火锅(杏山店),曹杨新村街道杏山路77号,普陀区,上海市,餐饮服务;中餐厅;火锅店,31.235452508842428,121.4038402076085
成都老码头火锅,武宁路101号我格广场4层407室,普陀区,上海市,餐饮服务;中餐厅;火锅店,31.239437932743808,121.4189670782412
红唇串串香(近铁城市广场店),真北路818北区地下二楼N-B2-16-S地铁13号线真北路站3号出口,普陀区,上海市,餐饮服务;中餐厅;火锅店,31.234720460562944,121.37773685552669
海底捞火锅(大渡河路),金沙江路960号华大科技园5楼,普陀区,上海市,餐饮服务;中餐厅;火锅店,31.23425257976802,121.38985468801916
小辉哥火锅(近铁城市广场店),真北路818号近铁城市广场商场北座3层,普陀区,上海市,餐饮服务;中餐厅;火锅店,31.23483043136583,121.37771087087316
赤浪火锅(魔都旗舰店),长寿路1118号星方汇广场1楼-2楼,普陀区,上海市,餐饮服务;中餐厅;火锅店,31.232283057719673,121.42268731722294
坎爷火锅(长寿路店),长寿路388号2楼,普陀区,上海市,餐饮服务;中餐厅;火锅店,31.243407286707583,121.4339736972615
九牛二户,长风大悦城4楼,普陀区,上海市,餐饮服务;中餐厅;火锅店,31.22518244191276,121.39096808130438
兴楼火锅,胶州路1055号,普陀区,上海市,餐饮服务;中餐厅;火锅店,31.24050315953391,121.43039143403584
川东大院(长风大悦城店),大渡河路178号长风大悦城L4层L413-15,普陀区,上海市,餐饮服务;中餐厅;四川菜(川菜)|餐饮服务;中餐厅;火锅店,31.223691444829136,121.38999855404715
南来顺(南石二路店),南石二路8号,普陀区,上海市,餐饮服务;中餐厅;火锅店,31.247160578011826,121.40081140354549
鸿兴老火锅,白丽路武威路1285号新邻天地3楼,普陀区,上海市,餐饮服务;中餐厅;火锅店,31.282765363065757,121.34377368571457
佐禾町日式锅物料理,叶家宅路100号创享塔9幢105室,普陀区,上海市,餐饮服务;中餐厅;火锅店,31.240022580208624,121.42611152942752
神筋火锅牛筋米捞,镇坪路58号,普陀区,上海市,餐饮服务;中餐厅;火锅店,31.25246134371293,121.42393327029319
巴奴毛肚火锅(环球港店),中山北路环球港3层,普陀区,上海市,餐饮服务;中餐厅;火锅店,31.234606078283477,121.40723673839803
煲宫(上海环球港),中山北路3300号上海环球港L4层L4106室,普陀区,上海市,餐饮服务;中餐厅;火锅店,31.235512071946008,121.40815916125683
蜀天上麻辣香锅(近铁城市广场店),真北路818号近铁城市广场商场北座,普陀区,上海市,餐饮服务;中餐厅;火锅店,31.23483043136583,121.37771087087316
好椰椰子鸡火锅(光新路店),石泉东路286号融创精彩天地2楼207室,普陀区,上海市,餐饮服务;中餐厅;火锅店,31.256220446323084,121.42697945561481
哥老官,长寿路155号巴黎春天百货陕西路店6层,普陀区,上海市,餐饮服务;中餐厅;火锅店,31.244365861137357,121.43641340768599
欢乐牧场(上海真光路店),真光路1288号百联中环购物广场F4层A-L408,普陀区,上海市,餐饮服务;中餐厅;火锅店|餐饮服务;中餐厅;特色/地方风味餐厅,31.246749041637145,121.37892669738646
辣府·辣崽子小火锅,长寿路828、846号3层02B1-02B17室,普陀区,上海市,餐饮服务;中餐厅;火锅店,31.23734339277231,121.42578527079392
野妹经典火锅(中环百联店),真光路1288号中环百联购物广场B区4层,普陀区,上海市,餐饮服务;中餐厅;火锅店,31.24805274512794,121.37855991890603
老码头火锅(铜川路店),铜川路68号弘基·时尚生活中心1-2层,普陀区,上海市,餐饮服务;中餐厅;火锅店,31.25688799995779,121.41537479165906
洪太极(皇太极梅川路店),梅川路1275-18号,普陀区,上海市,餐饮服务;中餐厅;火锅店,31.24495026452006,121.37718250210817
捞王火锅,真北路818号近铁城市广场北座2层,普陀区,上海市,餐饮服务;中餐厅;火锅店,31.23448719733266,121.37698460974812
重庆美蛙鱼(长寿路店),胶州路951号(胶州路长寿路路口),普陀区,上海市,餐饮服务;中餐厅;火锅店,31.23983864535217,121.43120090871462
虾满堂(梅川路店),长征镇梅川路1394号一楼A室,普陀区,上海市,餐饮服务;中餐厅;火锅店,31.246301116093797,121.37551308747733
海底捞火锅(金沙和美广场店),金沙和美广场3层1-23,普陀区,上海市,餐饮服务;中餐厅;火锅店,31.2390408324714,121.36192681023326
小辉哥火锅(上海环球港),中山北路3300号月星·环球港F3层,普陀区,上海市,餐饮服务;中餐厅;火锅店,31.235925083818405,121.40858337128515
辣府火锅(金沙江路店),金沙江路1759号圣诺亚大厦A座202,普陀区,上海市,餐饮服务;中餐厅;火锅店,31.234427084198625,121.37183729333333
七口辣火锅杯(安天大厦店),兰溪路141号安天大厦4楼,普陀区,上海市,餐饮服务;中餐厅;火锅店,31.24127113107443,121.39991777865009
左庭右院鲜牛肉火锅(百联中环店),真光路1288号百联中环购物广场F3层A-L302A,普陀区,上海市,餐饮服务;中餐厅;火锅店,31.247054490508603,121.37946618871165
老盛兴蜀吉签成都串串,真如镇街道兰溪路300号,普陀区,上海市,餐饮服务;中餐厅;火锅店,31.250105052677156,121.39760984374682
凯达石斑鱼打边炉(胶州路店),胶州路859号1-3层,普陀区,上海市,餐饮服务;中餐厅;火锅店,31.23900133641872,121.4327297457892
我家酸菜鱼羊蝎子,中山北路3030-1号,普陀区,上海市,餐饮服务;中餐厅;火锅店,31.238569491497643,121.40979089376582
大食堂老魏羊羯子涮锅,江宁路1318号,普陀区,上海市,餐饮服务;中餐厅;火锅店,31.24836606939011,121.43700326243852
牛串老成都风味火锅串串,大渡河路怒江路21号,普陀区,上海市,餐饮服务;中餐厅;火锅店,31.230456679040724,121.39210028095118
京城一锅·羊蝎子涮肉,曹扬新村街道兰溪路141号安天大厦四楼A区,普陀区,上海市,餐饮服务;中餐厅;火锅店,31.24147603885395,121.39992576183103
老师十七火锅店,长寿路街道胶州路945号长久大厦三楼,普陀区,上海市,餐饮服务;中餐厅;火锅店,31.239488870171495,121.43191421456622
天山云意鲜肉火锅,西康路1426号F1,普陀区,上海市,餐饮服务;中餐厅;火锅店,31.24625173420856,121.43119333868395
老北京海鲜铜火锅,叶家宅路创享塔2号楼106,普陀区,上海市,餐饮服务;中餐厅;火锅店,31.23961384696091,121.42695486039234
魔灶(美蛙火锅),光新路298号,普陀区,上海市,餐饮服务;中餐厅;火锅店,31.256006354648072,121.42683625146863
老码头火锅,武宁路我格广场101号4074楼,普陀区,上海市,餐饮服务;中餐厅;火锅店,31.239766281452745,121.41843244585874
三掌柜火锅,长征镇梅川路1249号,普陀区,上海市,餐饮服务;中餐厅;火锅店,31.2439842386652,121.37898788317177
小确幸火锅,宜川路301号201室,普陀区,上海市,餐饮服务;中餐厅;火锅店,31.26465298254156,121.43339175239981
千翻鲜牛肉火锅,宜川路299号2楼201,普陀区,上海市,餐饮服务;中餐厅;火锅店,31.264648786556652,121.43326551601552
渝来渝牛重庆火锅店,宜川路442号,普陀区,上海市,餐饮服务;中餐厅;火锅店,31.267010019562854,121.43146401716288
蜀仙香火锅酒楼,曹杨路与谈家渡路交叉口西50米,普陀区,上海市,餐饮服务;中餐厅;火锅店,31.23591715331408,121.41628450722772
雅安张记木桶鱼火锅店,海甸五四路32号恒福居6号楼6-101,普陀区,上海市,餐饮服务;中餐厅;火锅店,31.247452983047335,121.408842521641
蒋记捞坊,绥德路581号附近,普陀区,上海市,餐饮服务;中餐厅;火锅店,31.267762785854423,121.36526421058775
小聚鱼悦,真光路1317号,普陀区,上海市,餐饮服务;中餐厅;火锅店,31.246394769606248,121.37699955683203
真北市场鑫迪冻品行,真北路华环农贸市场冻品区84-85号,普陀区,上海市,餐饮服务;中餐厅;火锅店,31.28796389716556,121.39716753825927
德荣老北京铜锅(武宁路店),武宁路1500号3幢一楼、二楼,普陀区,上海市,餐饮服务;中餐厅;火锅店,31.247824017976487,121.40426827878045
九鼎轩脆毛肚火锅(长寿路店),长寿路1080-2号,普陀区,上海市,餐饮服务;中餐厅;火锅店,31.233576297416658,121.42342720900967
今年牛事潮品全牛火锅(汇融天地店),曹杨路535号汇融天地3层304号,普陀区,上海市,餐饮服务;中餐厅;火锅店,31.238390822211837,121.41341563686812
红料理|串串有瘾(新会路店),新会路50号,普陀区,上海市,餐饮服务;中餐厅;火锅店,31.24443300386293,121.43881339206403
河西道大漠羔羊(枣阳路店),枣阳路347号(近金沙江路),普陀区,上海市,餐饮服务;中餐厅;火锅店,31.234467141619135,121.397207207658
红料理|串串有瘾(梅川路店),梅川路1275-6号,普陀区,上海市,餐饮服务;中餐厅;火锅店,31.24457188379798,121.37784589236009
煜北开锅羊肉(巴黎春天百货),长寿路155号巴黎春天百货F6层,普陀区,上海市,餐饮服务;中餐厅;火锅店|餐饮服务;中餐厅;西北菜,31.24439645322584,121.43677012966923
辉煌海鲜馆(大渡河路店),大渡河路1611号(近北石路),普陀区,上海市,餐饮服务;中餐厅;火锅店|餐饮服务;中餐厅;海鲜酒楼,31.249334898243497,121.39292942594787
就是泰泰式火锅(巴黎春天店),长寿路155号巴黎春天百货F5层,普陀区,上海市,餐饮服务;中餐厅;火锅店,31.24428404598313,121.43708678768704
肖捞火锅,中山北路3018号长城·弘基广场内,普陀区,上海市,餐饮服务;中餐厅;火锅店,31.239472387094168,121.41034818883645
一牛九品潮汕牛肉火锅(光新路店),"光新路147号(网鱼网咖隔壁,阳光大厦对面)",普陀区,上海市,餐饮服务;中餐厅;火锅店,31.25337494716088,121.42716799781039
哈尼石锅鱼火锅(近铁城市广场店),真北路858号近铁城市广场北座B1-13-2商铺,普陀区,上海市,餐饮服务;中餐厅;火锅店,31.234809973346017,121.37707349359597
渝火老城区炭火蛙锅(巴黎春天百货),长寿路155号巴黎春天百货F5层,普陀区,上海市,餐饮服务;中餐厅;火锅店,31.244209889516902,121.43755576287072
锅sir时尚火锅外卖(普陀店),怒江北路402-3号,普陀区,上海市,餐饮服务;中餐厅;火锅店,31.23802119600479,121.38461805010385
九牛一品潮汕牛肉火锅(铜川路店),铜川路68号弘基时尚生活中心2层,普陀区,上海市,餐饮服务;中餐厅;火锅店,31.256927027972427,121.41543184275122
老北京羊蝎子火锅(环球港店),中山北路3173号,普陀区,上海市,餐饮服务;中餐厅;火锅店,31.23828241988003,121.40940867203781
珑猫小火锅(曹杨路路店),曹杨路555号地下一层06、07室,普陀区,上海市,餐饮服务;中餐厅;火锅店,31.238507774437082,121.4134236334749
高老九重庆老火锅(近铁广场店),[],普陀区,上海市,餐饮服务;中餐厅;火锅店,31.234750073839315,121.376987583885
天龙花甲交通路1305号(普陀六区),交通路1305号1305号-2,普陀区,上海市,餐饮服务;中餐厅;火锅店,31.255372426309975,121.44426375525028
品膻居蒙王羊蝎子热气涮羊肉(凯旋北路店),凯旋北路1616号(近清水湾大酒店),普陀区,上海市,餐饮服务;中餐厅;火锅店,31.230095177954333,121.4072721498822
钢管厂五区小肫肝串串香火锅(梅川路店),梅川路1398号1楼A座,普陀区,上海市,餐饮服务;中餐厅;火锅店,31.246398212096878,121.37535924207448
熊猫星共享厨房(联合大厦店),武宁路350号联合大厦二楼,普陀区,上海市,餐饮服务;中餐厅;火锅店,31.24383434909481,121.41604157620746
80'SICAN海陆自助餐厅(百联中环购物广场),真光路1288号百联中环购物广场F4层B-L409&10,普陀区,上海市,餐饮服务;中餐厅;火锅店,31.247403134307355,121.37973192571884
贝嫂火锅杯麻辣烫(新村路店),新村路417-1号,普陀区,上海市,餐饮服务;中餐厅;火锅店,31.267522856284014,121.42400005382298
百年谭鸭血·鸭血火锅(长寿路店),[],普陀区,上海市,餐饮服务;中餐厅;火锅店,31.24282757165879,121.43700975577104
海底捞火锅(海宁路店),海宁路269号森林湾大厦2层,虹口区,上海市,餐饮服务;中餐厅;火锅店,31.252951758830058,121.48320568050151
海底捞火锅(逸仙路店),逸仙路580号吉买盛4层2号,虹口区,上海市,餐饮服务;中餐厅;火锅店,31.30583761144887,121.48007622279427
来亿锅羊蝎子火锅(虹口店),大名路86号,虹口区,上海市,餐饮服务;中餐厅;火锅店,31.247203081384338,121.48685107030569
傣妹火锅(四川北路一店),四川北路1898号3层(近多伦路),虹口区,上海市,餐饮服务;中餐厅;火锅店,31.263881297124858,121.47954195281541
京片儿老李羊羯子涮锅(虹口店),同心路与西江湾路交叉口东北50米,虹口区,上海市,餐饮服务;中餐厅;火锅店,31.268617385168238,121.47397653876928
阿五涮羊肉(安国路一店),安国路280号,虹口区,上海市,餐饮服务;中餐厅;火锅店,31.262107467540634,121.50088522178679
小三宝火锅(虹口店),瑞虹路138号瑞虹路,虹口区,上海市,餐饮服务;中餐厅;火锅店,31.264689165647603,121.49381152416544
尚品,舟山路574、578,虹口区,上海市,餐饮服务;中餐厅;火锅店,31.2628357731743,121.49741667124894
老成都串串香火锅,宝安支路28号,虹口区,上海市,餐饮服务;中餐厅;火锅店,31.266151652361273,121.48478713493299
牛天下(虹口路店),曲阳路789号(柏宏大厦),虹口区,上海市,餐饮服务;中餐厅;火锅店,31.29205757097581,121.48604438424246
蚝生港式打边炉,花园路16号2楼,虹口区,上海市,餐饮服务;中餐厅;火锅店,31.27156413074981,121.47433248439502
阿贵小龙虾(逸仙路店),逸仙路272号,虹口区,上海市,餐饮服务;中餐厅;海鲜酒楼|餐饮服务;中餐厅;火锅店,31.300580403536728,121.4827289426641
周渝食惦(曲阳百联店),中山北二路1818号曲阳百联购物中心5F周渝食惦,虹口区,上海市,餐饮服务;中餐厅;火锅店,31.288363465118202,121.48786317426253
辛元鲜牛肉火锅(赤峰路店),广纪路157号(近赤峰路),虹口区,上海市,餐饮服务;中餐厅;火锅店,31.28555370778452,121.47799475934488
潮家牛肉火锅(广灵二路店),广灵二路377号,虹口区,上海市,餐饮服务;中餐厅;火锅店,31.285136166548323,121.4665618381272
尚品火锅,唐山路810号(近保定路),虹口区,上海市,餐饮服务;中餐厅;火锅店,31.260830526581874,121.50407677881323
传奇骨头火锅,车站南路330号联华超市F1E101-5,虹口区,上海市,餐饮服务;中餐厅;火锅店,31.296617457592674,121.46987654354105
海底捞外送(四川北路店),四川北路1363号3层L3-A04号商铺,虹口区,上海市,餐饮服务;中餐厅;火锅店,31.254468951975273,121.47903801218327
捞王火锅(瑞虹天地月亮湾店),瑞虹路188号瑞虹天地月亮湾2层16A,虹口区,上海市,餐饮服务;中餐厅;火锅店,31.267039758635487,121.49468045423191
金三爷火锅,四川北路865号中信广场2楼,虹口区,上海市,餐饮服务;中餐厅;火锅店,31.250410486556017,121.47963843685297
京三爷铜炉涮锅(中信广场店),四川北路859号中信广场东区F2层3-01,虹口区,上海市,餐饮服务;中餐厅;火锅店,31.250596891633673,121.4798070054754
玉林串串香(虹口足球场店),东江湾路151-157-167号一层F110商铺,虹口区,上海市,餐饮服务;中餐厅;火锅店,31.268651906219265,121.47523076810661
牛人自助烤肉火锅(曲阳店),曲阳路791号,虹口区,上海市,餐饮服务;中餐厅;火锅店,31.292202832172354,121.48581455585654
淘汰郎(上海一店),株洲路51号,虹口区,上海市,餐饮服务;中餐厅;火锅店,31.27631122021883,121.46132032193118
小辉哥火锅(凯德龙之梦虹口店A座),西江湾路388号凯德龙之梦虹口店A座B1层,虹口区,上海市,餐饮服务;中餐厅;火锅店,31.272204795419466,121.47395415648812
左庭右院(凯德龙之梦虹口店A座),西江湾路388号凯德龙之梦虹口店A座B1层,虹口区,上海市,餐饮服务;中餐厅;火锅店,31.27265224812251,121.47311229626358
蜀大侠(虹口店),四川北路1800号仲益永安商厦2层,虹口区,上海市,餐饮服务;中餐厅;火锅店,31.26192676382526,121.47906446698387
锦尚缘旋转小火锅,惠民路230号(惠民居委会隔壁),虹口区,上海市,餐饮服务;中餐厅;火锅店,31.25631568931788,121.50957369127127
新万先(星星堂店),天宝路280弄35号星星堂商业6号楼1-2层(天虹路东沙虹港路口),虹口区,上海市,餐饮服务;中餐厅;火锅店|公司企业;公司;公司,31.26677692879182,121.49136053270321
牛垚鲜牛肉火锅(上滨广场店),周家嘴路887号306室,虹口区,上海市,餐饮服务;中餐厅;火锅店,31.26196597181075,121.49902654497258
牛到家牛肉火锅(四平路旗舰店),四平路714号(近10号线邮电新村站),虹口区,上海市,餐饮服务;中餐厅;火锅店,31.27283686149533,121.49286944196153
协乐海鲜火锅,东长治路588号上海白玉兰广场L3-09,虹口区,上海市,餐饮服务;中餐厅;火锅店,31.25130180530594,121.49407059239229
潮辣潮人火锅(虹口店),东江湾路167号绿地创客院内,虹口区,上海市,餐饮服务;中餐厅;火锅店,31.269332126395916,121.47434873013773
魔都·川西坝子火锅,广灵二路商业街277-1号,虹口区,上海市,餐饮服务;中餐厅;火锅店,31.28574727673506,121.47003198448424
上上谦(凯德龙之梦虹口店A座),西江湾路388号凯德龙之梦虹口店A座L6层,虹口区,上海市,餐饮服务;中餐厅;火锅店,31.27266342204934,121.47353370596534
凑凑火锅·茶憩(瑞虹天地月亮湾),瑞虹路188号瑞虹天地月亮湾L1层,虹口区,上海市,餐饮服务;中餐厅;火锅店,31.265528546551625,121.49405934529847
蜀香锅天下火锅,凉城路638号2楼,虹口区,上海市,餐饮服务;中餐厅;火锅店,31.296282288227175,121.46679963779711
小胡同家庭烤肉火锅(凉城路店),凉城新村街道凉城路400号小胡同烤肉,虹口区,上海市,餐饮服务;中餐厅;火锅店,31.289617374489694,121.46619930166386
林芝火锅,广灵二路323号楼上楼,虹口区,上海市,餐饮服务;中餐厅;火锅店,31.285681727283905,121.46834751477522
电台巷火锅(上海直营店),东江湾路444号虹口足球场5号出口,虹口区,上海市,餐饮服务;中餐厅;火锅店,31.27203610966981,121.47545824968326
德荣老北京铜锅(虹口店),物华路73号1层,虹口区,上海市,餐饮服务;中餐厅;火锅店,31.261970650198894,121.49191091797942
金龙鱼林岛火锅,武进路183号,虹口区,上海市,餐饮服务;中餐厅;火锅店,31.254660337599343,121.4826375383922
上海建琴餐饮店,天虹路18号,虹口区,上海市,餐饮服务;中餐厅;火锅店,31.26253589855222,121.49774889387888
虾盱孜然美,[],虹口区,上海市,餐饮服务;中餐厅;火锅店,31.267805353969507,121.48492648710948
老北京铜锅涮肉,新市南路585-1临附近,虹口区,上海市,餐饮服务;中餐厅;火锅店,31.29707424370419,121.47666421265707
阿Q手工虾滑,广灵二路277号世纪联华超市一层商铺,虹口区,上海市,餐饮服务;中餐厅;火锅店,31.285557511274764,121.47045438487773
重庆红亮民谣音乐火锅(魔都旗舰店),四川北路1915号上海时装商厦二楼,虹口区,上海市,餐饮服务;中餐厅;火锅店,31.264074328876454,121.47923587648845
梦时代涮烤锅食汇,广灵四路510号,虹口区,上海市,餐饮服务;中餐厅;火锅店,31.28927427230023,121.46535065003447
太二酸菜鱼(上海白玉兰广场购物中心),东长治路588号上海白玉兰广场购物中心B2层,虹口区,上海市,餐饮服务;中餐厅;火锅店,31.25079842633776,121.49420311224137
渝家老北京铜火锅,欧阳路561号,虹口区,上海市,餐饮服务;中餐厅;火锅店,31.275965324688524,121.4823517189582
胡同里冒菜小火锅,凉城路401号,虹口区,上海市,餐饮服务;中餐厅;火锅店,31.288540213100685,121.4655944813683
三川市集(上海白玉兰广场购物中心),东长治路588号上海白玉兰广场购物中心B2层,虹口区,上海市,餐饮服务;中餐厅;火锅店,31.251306388194905,121.49393209334936
烤全鱼鸡公煲黄焖鸡米饭(万安路店),万安路469号,虹口区,上海市,餐饮服务;中餐厅;火锅店,31.303485745997936,121.47702590078369
凤鲜姐姐·毛血旺茶火锅(虹口足球场店),四川北路2277号,虹口区,上海市,餐饮服务;中餐厅;火锅店,31.270627125740834,121.47666046201782
哥老官(凯德龙之梦虹口店A座),西江湾路388号凯德龙之梦虹口店A座L6层,虹口区,上海市,餐饮服务;中餐厅;火锅店,31.272981790358852,121.47406947771975
黄门辣匠秘制串串(凉城路店),凉城路729号建设银行对面,虹口区,上海市,餐饮服务;中餐厅;火锅店,31.298273468096504,121.46641323687656
小二涮锅(新市北路店),新市北路1437号(新市北路菜场对面),虹口区,上海市,餐饮服务;中餐厅;火锅店,31.30506273444975,121.47688729151345
魔都·川西坝子火锅(四平路店),四平路277号好生活生鲜超市2楼,虹口区,上海市,餐饮服务;中餐厅;火锅店,31.264496673607177,121.48489164563782
上海旺旺羊肉火锅(周家嘴路三店),舟山路484号,虹口区,上海市,餐饮服务;中餐厅;火锅店,31.261192038115574,121.49927048893083
虹霞火锅城(中原店),车站北路708号,虹口区,上海市,餐饮服务;中餐厅;火锅店,31.299161758205248,121.46244277116294
牛腩之旅·牛腩牛杂煲(龙之梦店),西江湾路388号5层5号,虹口区,上海市,餐饮服务;中餐厅;火锅店,31.272724220419818,121.4738276871277
呷哺呷哺(上海白玉兰广场购物中心),东长治路588号上海白玉兰广场购物中心B2层,虹口区,上海市,餐饮服务;中餐厅;火锅店,31.25082907371747,121.4927548977057
倪氏龙虾老北京火锅(吴家湾路店),吴家湾路68号,虹口区,上海市,餐饮服务;中餐厅;火锅店,31.294885293688896,121.48088898811105
宝颐海鲜姿造精致养生海鲜火锅,大连路833号合生财富广场北楼1-2层,虹口区,上海市,餐饮服务;中餐厅;海鲜酒楼|餐饮服务;中餐厅;火锅店,31.26572975072678,121.50284695997286
熊猫老灶火锅(上海白玉兰广场购物中心),东长治路588号上海白玉兰广场购物中心F2层,虹口区,上海市,餐饮服务;中餐厅;火锅店,31.251405766555685,121.49373939119674
九牛王潮汕牛肉火锅(虹口曲阳店),曲阳路566号家乐福3楼,虹口区,上海市,餐饮服务;中餐厅;火锅店,31.281368137561124,121.4864477281612
金龙·打边炉(武进路店),武进路183号(近吴淞路),虹口区,上海市,餐饮服务;中餐厅;火锅店,31.254678126928297,121.48256829383003
翰翰火锅,中山北一路186号翰朝酒店,虹口区,上海市,餐饮服务;中餐厅;火锅店,31.275402417382036,121.4735876523253
重庆熬家老火锅(瑞虹天地星星堂)(暂停营业),天宝路280弄17号瑞虹天地星星堂B1-28室(天虹路路口),虹口区,上海市,餐饮服务;中餐厅;火锅店,31.26670055294566,121.49155824928859
珑猫小火锅(新市南路店),新市南路784号1层-1,虹口区,上海市,餐饮服务;中餐厅;火锅店,31.297473007112583,121.47628588747845
捞王锅物料理(四川北路店),四川北路1318号盛邦国际大厦2层,虹口区,上海市,餐饮服务;中餐厅;火锅店,31.253320157658948,121.48031553928627
海底捞火锅(五角场店),邯郸路585号苏宁电器5层,杨浦区,上海市,餐饮服务;中餐厅;火锅店,31.301289564254773,121.50979066402438
小肥羊火锅餐厅(黄兴路店),黄兴路1679号,杨浦区,上海市,餐饮服务;中餐厅;火锅店,31.291033275879983,121.51591985075464
巴将军养生火锅(同济店),彰武路35号,杨浦区,上海市,餐饮服务;中餐厅;火锅店,31.284357106463204,121.5032498295513
和兴港式打边炉,双阳路504号(近延吉中路),杨浦区,上海市,餐饮服务;中餐厅;火锅店,31.285454144039797,121.52639608295055
捞王锅物料理(中原店),国和路709号中原城市广场1座3层301室,杨浦区,上海市,餐饮服务;中餐厅;火锅店,31.317543290898907,121.51675848926406
虹霞火锅城(中原店),中原路278号(原虹霞火锅城),杨浦区,上海市,餐饮服务;中餐厅;火锅店,31.32161288859546,121.52789480630011
豆捞坊(上海五角场店),邯郸路600号万达广场五角场店4层,杨浦区,上海市,餐饮服务;中餐厅;火锅店,31.302281255040622,121.5094754692875
海道传火锅(隆昌路店),隆昌路610号2层,杨浦区,上海市,餐饮服务;中餐厅;火锅店,31.278113579859635,121.5383627365898
小辉哥火锅(紫荆广场),控江路1628号紫荆广场5层5-02室,杨浦区,上海市,餐饮服务;中餐厅;火锅店,31.277066401328348,121.51289557830064
平佑自助火锅(双阳路店),双阳路663-3号,杨浦区,上海市,餐饮服务;中餐厅;火锅店,31.289796308021685,121.52410232764191
京城1锅老北京羊蝎子火锅(五角场店),国济路30号2层,杨浦区,上海市,餐饮服务;中餐厅;火锅店,31.3047939680875,121.51108993495548
爱晒鲜货火锅,国济路30号-16号2层,杨浦区,上海市,餐饮服务;中餐厅;火锅店,31.305023636987425,121.51100662343407
小辉哥火锅(合生汇),翔殷路1099号上海合生国际广场5层,杨浦区,上海市,餐饮服务;中餐厅;火锅店,31.30219257077868,121.51337312188274
大渝火锅(合生汇),翔殷路1099号合生汇B1层,杨浦区,上海市,餐饮服务;中餐厅;火锅店,31.30117395439553,121.51336718709668
重庆怪味鱼(美蛙)火锅,四平路901号四平电影院二楼(近大连路),杨浦区,上海市,餐饮服务;中餐厅;火锅店,31.27748313324768,121.49661554251172
虹霞火锅城(敦化店),敦化路160号(原虹霞火锅城),杨浦区,上海市,餐饮服务;中餐厅;火锅店,31.29288142716406,121.53489754251122
旺晖火锅(中原店),中原路278号,杨浦区,上海市,餐饮服务;中餐厅;火锅店,31.3215231211446,121.52797205721717
潮牛海记潮汕牛肉火锅店,通北路通北路699号文通国际1楼,杨浦区,上海市,餐饮服务;中餐厅;火锅店,31.265818198553145,121.51151571090283
新招鲜(国权路店),国权东路186号(新招鲜),杨浦区,上海市,餐饮服务;中餐厅;火锅店,31.291864483412528,121.51717707733609
宝班长(许昌路店),许昌路1180号,杨浦区,上海市,餐饮服务;中餐厅;火锅店,31.268342334426574,121.51297860145624
李氏宁夏牛羊肉涮锅,学府街78号(学府街与武川路交叉口西行80米),杨浦区,上海市,餐饮服务;中餐厅;火锅店,31.302890502612154,121.48881834974166
重庆鸡公煲(抚顺路店),长岭路66-2,杨浦区,上海市,餐饮服务;中餐厅;火锅店,31.284314472435966,121.51502233140437
小辉哥火锅(百联滨江购物中心),宁国路218号滨江百联购物中心3层,杨浦区,上海市,餐饮服务;中餐厅;火锅店,31.267197513333336,121.53381549385966
安答铜锅涮肉(包头路店),包头路436号,杨浦区,上海市,餐饮服务;中餐厅;火锅店,31.319491985095045,121.53443696243112
川庭毛肚火锅,隆昌路610号二楼,杨浦区,上海市,餐饮服务;中餐厅;火锅店,31.278199475295374,121.53833264474494
神筋牛筋米捞,闸殷路1555号,杨浦区,上海市,餐饮服务;中餐厅;火锅店,31.31408667118926,121.50741919521434
南门涮肉·羊蝎子火锅,国济路30号二楼百联又一城后门,杨浦区,上海市,餐饮服务;中餐厅;火锅店,31.30483483285343,121.5110487872272
上风鹅汤馆火锅,市光一村94号,杨浦区,上海市,餐饮服务;中餐厅;火锅店,31.31891671170929,121.53381918153097
牛到家牛肉火锅(逸仙路店),"逸仙路805号(江湾镇地铁站5号口斜对面,江湾公交车站台)",杨浦区,上海市,餐饮服务;中餐厅;火锅店,31.30525226755804,121.48159858094041
好椰椰子鸡火锅(安波路店),安波路467弄海上硕和城一层10号(近营口路),杨浦区,上海市,餐饮服务;中餐厅;火锅店,31.304253915000977,121.5265118768177
刘氏龙虾老北京羊蝎子,国顺东路黄兴五角场800号东楼114室(黄兴公园西侧),杨浦区,上海市,餐饮服务;中餐厅;火锅店,31.296074455068457,121.52102267040841
左庭右院鲜牛肉火锅(五角场店),政通路189号万达特力时尚汇4层,杨浦区,上海市,餐饮服务;中餐厅;火锅店,31.304033292921847,121.50835536340064
今日牛事潮州牛肉火锅(黄兴路),黄兴路1766号,杨浦区,上海市,餐饮服务;中餐厅;火锅店,31.292572858147288,121.51599196846799
蜀城巷子老成都火锅(控江店),控江路1688号卫百辛大厦3层,杨浦区,上海市,餐饮服务;中餐厅;火锅店,31.27662284599219,121.51125288070503
熊猫老灶火锅(合生汇店),翔殷路1099号L6-01室,杨浦区,上海市,餐饮服务;中餐厅;火锅店,31.30169566419496,121.51264161949652
左庭右院(合生汇),翔殷路1099号合生汇L4层L4-28,杨浦区,上海市,餐饮服务;中餐厅;火锅店,31.30165561212772,121.51331396166638
老北京羊蝎子火锅(河间路店),河间路883号12临(河间路隆昌路路口),杨浦区,上海市,餐饮服务;中餐厅;火锅店,31.274585035692457,121.54012693772749
九鼎轩脆毛肚火锅(五角场店),邯郸路600号万达A座第一食品3层,杨浦区,上海市,餐饮服务;中餐厅;火锅店,31.302073322743084,121.50912826153237
巫山烤鱼,[],杨浦区,上海市,餐饮服务;中餐厅;火锅店,31.330153591237725,121.53592141356393
九牛王潮汕牛肉火锅(双阳路店),双阳路419号,杨浦区,上海市,餐饮服务;中餐厅;火锅店,31.283879030726713,121.52764116802828
红魔重庆美蛙火锅(五角场万达店),政通路189号特力时尚汇1-2层,杨浦区,上海市,餐饮服务;中餐厅;火锅店,31.30368210967481,121.50824600585648
幻鱼(紫荆广场),控江路1628号紫荆广场F6层L6-04,杨浦区,上海市,餐饮服务;中餐厅;特色/地方风味餐厅|餐饮服务;中餐厅;火锅店,31.277294320476404,121.51324878696995
新招鲜(平凉路店),平凉路1055号,杨浦区,上海市,餐饮服务;中餐厅;火锅店,31.26283354115293,121.52787767559997
牛百汇潮汕鲜牛肉火锅(国顺店),国顺东路255号(靠近营口路八号线黄兴公园1号口),杨浦区,上海市,餐饮服务;中餐厅;火锅店,31.3003508227686,121.528588768313
哈尼哈尼(合生汇),翔殷路1099号合生汇L5层,杨浦区,上海市,餐饮服务;中餐厅;火锅店,31.301852024256654,121.5127881165118
阿五涮羊肉火锅(民京路店),五角场镇民京路908号,杨浦区,上海市,餐饮服务;中餐厅;火锅店,31.324607387406427,121.51916605897033
老北京涮锅,许昌路1448号附近,杨浦区,上海市,餐饮服务;中餐厅;火锅店,31.272254374004408,121.51045545117906
小肥羊火锅(邯郸路店),邯郸路600号五角场万达广场第一食品4楼,杨浦区,上海市,餐饮服务;中餐厅;火锅店,31.302162693976317,121.50960995349826
老城区火锅烧烤,延吉中路127号-8号,杨浦区,上海市,餐饮服务;中餐厅;火锅店,31.286016694964665,121.52707921005748
巷子老火锅店,控江路1686号3楼蜀城,杨浦区,上海市,餐饮服务;中餐厅;火锅店,31.27645558469735,121.51113849401825
迪立希牛肉火锅,控江路1628号紫荆广场5层506,杨浦区,上海市,餐饮服务;中餐厅;火锅店,31.2770794632121,121.51257144874957
李八哥成都市井火锅(杨浦店),武川路49-51号,杨浦区,上海市,餐饮服务;中餐厅;火锅店,31.303286276982327,121.48980083330692
好骨气养生骨头火锅(中原店),民京路959号133世界广场D座2楼,杨浦区,上海市,餐饮服务;中餐厅;火锅店,31.324377608526408,121.52139753758763
荣章羊肉馆,内江路398-1号,杨浦区,上海市,餐饮服务;中餐厅;火锅店,31.285877345300687,121.54058124120431
卤力拼老卤火锅(魔都旗舰店),翔殷路1099号合生汇4L层能量市集内,杨浦区,上海市,餐饮服务;中餐厅;火锅店,31.301917977988914,121.51347750740538
吧台火锅,内江路399号附近,杨浦区,上海市,餐饮服务;中餐厅;火锅店,31.286436614530107,121.54035457429741
北京老门框爆肚涮肉(杨浦店),闸殷路205号-7室,杨浦区,上海市,餐饮服务;中餐厅;火锅店,31.33113438051147,121.52296012606493
咱老乡火锅城,市光路1193号,杨浦区,上海市,餐饮服务;中餐厅;火锅店,31.32348864344099,121.5374704222326
海底捞火锅(杨树浦路店),杨树浦路1058号滨江国际广场一号楼二层,杨浦区,上海市,餐饮服务;中餐厅;火锅店,31.254682449086406,121.52570745577965
凑凑火锅·茶憩(五角场万达店),国宾路58号万达广场B座1层1115号,杨浦区,上海市,餐饮服务;中餐厅;火锅店,31.30349204861609,121.50854106630142
重庆鸡公煲(河间路店),河间路806号,杨浦区,上海市,餐饮服务;中餐厅;火锅店,31.272977963411964,121.53846043968929
牛天下潮汕牛肉海鲜火锅(国顺东路店),双阳北路288-1,杨浦区,上海市,餐饮服务;中餐厅;火锅店,31.29655354360587,121.52112497026147
我家酸菜鱼(包头路店),包头路272号(太平洋生活广场),杨浦区,上海市,餐饮服务;中餐厅;火锅店,31.314947096761113,121.53460383446658
鼎尊锅物料理(五角场店),黄兴路2009号(国定路口),杨浦区,上海市,餐饮服务;中餐厅;火锅店,31.296031574755514,121.5132211129273
金华砂锅(紫荆广场),控江路1628号紫荆广场F6层L6-04,杨浦区,上海市,餐饮服务;中餐厅;火锅店,31.277377645461154,121.51337421551541
鼎尊胡椒猪肚鸡(五角场店),黄兴路2009-7号,杨浦区,上海市,餐饮服务;中餐厅;火锅店,31.296112262165103,121.51347197729719
妙亭涮羊肉(打虎山路店),打虎山路98号,杨浦区,上海市,餐饮服务;中餐厅;火锅店,31.275347347495877,121.50341518373986
红料理|串串有瘾(复旦店),政民路356号,杨浦区,上海市,餐饮服务;中餐厅;火锅店,31.303761169356502,121.50118577720937
四川香天下火锅(五角场店),淞沪路151号,杨浦区,上海市,餐饮服务;中餐厅;火锅店,31.30536373583804,121.5090256212911
桃花酝火锅,许昌路1275-1号,杨浦区,上海市,餐饮服务;中餐厅;火锅店,31.27046880002352,121.51137482615613
老北京涮羊肉(国权北路店),高境镇吉浦路521号,杨浦区,上海市,餐饮服务;中餐厅;火锅店,31.313225696028667,121.49189450315049
莔莔天然酸汤火锅,邯郸路600号五角场万达B区沿街商铺1层1105号,杨浦区,上海市,餐饮服务;中餐厅;火锅店,31.30254395893269,121.50906700548518
鱼丸店,松潘路周家牌路21号,杨浦区,上海市,餐饮服务;中餐厅;火锅店,31.26263236522696,121.53714156588717
墨邸钰食火锅,国定路506号2楼,杨浦区,上海市,餐饮服务;中餐厅;火锅店,31.305304917070703,121.50163827306517
三羊斋铜锅涮肉,双阳支路155号,杨浦区,上海市,餐饮服务;中餐厅;火锅店,31.277376272685256,121.53765780591006
重庆美蛙鱼火锅,四平路四平电影院楼上,杨浦区,上海市,餐饮服务;中餐厅;火锅店,31.277570627316067,121.49645897070161
大瑜火锅,五角场国宾路特力时尚汇一楼,杨浦区,上海市,餐饮服务;中餐厅;火锅店,31.304049313126367,121.50836439401634
龙窑火锅串串香,[],杨浦区,上海市,餐饮服务;中餐厅;火锅店,31.30337915914954,121.51269566587264
重庆老火锅,[],杨浦区,上海市,餐饮服务;中餐厅;火锅店,31.29290509411209,121.53476214291786
老季羊蝎子(殷行路店),廊下镇殷行路419号,杨浦区,上海市,餐饮服务;中餐厅;火锅店,31.33014164780108,121.53426355918815
火铜羊涮羊肉,包头路276号,杨浦区,上海市,餐饮服务;中餐厅;火锅店,31.315087041292625,121.53460281977394
黑皮紫铜火锅&疯狂烧烤(河间店),河间路883号-13,杨浦区,上海市,餐饮服务;中餐厅;火锅店,31.27460048342746,121.54033149797395
麒麟火锅,"三门路99号,B区3层301-304",杨浦区,上海市,餐饮服务;中餐厅;火锅店,31.31366904885906,121.50817491060351
誉臻渔林港湾火锅餐厅,国和路与民庆路交叉口北100米路东,杨浦区,上海市,餐饮服务;中餐厅;火锅店,31.31892125665002,121.51800059962916
井格重庆火锅(五角场悠迈广场店),四平路2500号东方商厦4楼,杨浦区,上海市,餐饮服务;中餐厅;火锅店,31.301192136493242,121.51135115409248
月光下的毡房蒙古涮鲜羊(长阳路店),长阳路2467号铭大创意广场(隆昌路地铁站1号口),杨浦区,上海市,餐饮服务;中餐厅;火锅店,31.2778173003332,121.54040743785892
23度不太冷椰子鸡火锅(合生汇店),翔殷路1099号合生汇L4层L4-12,杨浦区,上海市,餐饮服务;中餐厅;火锅店,31.302286636682716,121.51410766029831
杰先森の小酒馆,包头路282号,杨浦区,上海市,餐饮服务;中餐厅;火锅店,31.31532036805549,121.53435908150901
老北京火锅龙虾烤鱼(国顺东路店),国顺东路96号(近包头路),杨浦区,上海市,餐饮服务;中餐厅;火锅店,31.303773631692167,121.53345636836563
德荣老北京铜锅(延吉东路店),延吉东路522号,杨浦区,上海市,餐饮服务;中餐厅;火锅店,31.287662759973458,121.53169942710433
锅锅要火财神到魔都旗舰店,安波路1018-1020号,杨浦区,上海市,餐饮服务;中餐厅;火锅店,31.302440584759847,121.51693235366496
妙亭涮羊肉(抚顺路店),抚顺路263号,杨浦区,上海市,餐饮服务;中餐厅;火锅店,31.281248530280887,121.50940098086943
重庆烤鱼小火锅(延吉店)(暂停营业),延吉东路472-1号,杨浦区,上海市,餐饮服务;中餐厅;火锅店,31.28781974273901,121.53252892294994
好骨气养生骨头火锅(长阳店),长阳路1441号星程酒店二楼(眉州路),杨浦区,上海市,餐饮服务;中餐厅;火锅店,31.269749297470668,121.52585466645822
牛蘑王羊蝎子(国顺路店),[],杨浦区,上海市,餐饮服务;中餐厅;火锅店,31.292394248824547,121.51052600139667
蜀火火锅(五角场万达店),邯郸路600号万达商业广场特力时尚汇2楼,杨浦区,上海市,餐饮服务;中餐厅;火锅店,31.30421995522116,121.50826502780119
月光下的毡房牧场直营店,[],杨浦区,上海市,餐饮服务;中餐厅;火锅店,31.277768165366094,121.54033724965194
馋鱼鲜·鲜鱼汤(紫荆广场),控江路1628号紫荆广场F4层L4-15/16,杨浦区,上海市,餐饮服务;中餐厅;火锅店,31.27717326464098,121.51321166821604
牛垚鲜牛肉鲜毛肚火锅(百联滨江店),平凉路1399号百联滨江购物中心F3层,杨浦区,上海市,餐饮服务;中餐厅;火锅店,31.26686626456133,121.53365404166503
羊蝎子老北京热气涮羊肉(殷行路店),殷行路610号,杨浦区,上海市,餐饮服务;中餐厅;火锅店,31.330927780511534,121.52723995500588
洞子张老匠火锅(复旦软件园店),隆昌路586号七巧国4楼复旦软件园1号楼,杨浦区,上海市,餐饮服务;中餐厅;火锅店,31.277376940059668,121.53971356544743
钢管厂五区小郡肝串串香火锅(五角场直营店),政民路374号,杨浦区,上海市,餐饮服务;中餐厅;火锅店,31.30336801544571,121.50041303072463
鱼椒情砂锅鱼·双拼碳烤鱼,江浦路549号,杨浦区,上海市,餐饮服务;中餐厅;火锅店,31.261676455253713,121.5216275642219
海底捞火锅(百联滨江购物中心店),宁国路222号百联滨江店3楼海底捞,杨浦区,上海市,餐饮服务;中餐厅;火锅店,31.266712989777467,121.53351363647171
小天鹅捞烫时代(国权路分店),国权路326号,杨浦区,上海市,餐饮服务;中餐厅;火锅店,31.292576629839438,121.5038793896446
银星涮羊坊,开鲁路328-2号,杨浦区,上海市,餐饮服务;中餐厅;火锅店,31.327030919920407,121.53065795057346
羊蝎子火锅(暂停营业),河间路883号-12(河间路与隆昌路交叉口),杨浦区,上海市,餐饮服务;中餐厅;火锅店,31.27081371661063,121.5401643549463
钱家乔老爷铜炉涮锅(内江路总店),内江路469号(近控江路),杨浦区,上海市,餐饮服务;中餐厅;火锅店,31.28707980305328,121.5396596069726
好乐迪音乐火锅(又一城店),淞沪路8号百联又一城9层,杨浦区,上海市,餐饮服务;中餐厅;火锅店,31.302990228269127,121.51162696797009
钱家乔老爷铜炉涮锅(双阳支路店),双阳支路127号(靠近隆昌路),杨浦区,上海市,餐饮服务;中餐厅;火锅店,31.276942054378644,121.53662288550937
爆鱼坊,政立路国权北路23号C50心诚菜市场,杨浦区,上海市,餐饮服务;中餐厅;火锅店,31.3309971166239,121.52471184789184
爱晒港式打边炉(五角场店),国济路32号二楼,杨浦区,上海市,餐饮服务;中餐厅;火锅店,31.304972604502172,121.51098856439795
989养生老鹅汤(装修中),开鲁路208-2号底层,杨浦区,上海市,餐饮服务;中餐厅;火锅店,31.32698562299585,121.53460783917028
蜀汉大渔·鱼头肥肠火锅(国权东路店),国权东路180号,杨浦区,上海市,餐饮服务;中餐厅;火锅店,31.291927978680167,121.51736270384224
厂外香钢管厂小郡肝串串香(学府街店),学府街66号、68号(武川路与学府街交叉口西南角20米),杨浦区,上海市,餐饮服务;中餐厅;火锅店,31.302784483238707,121.48913348620079
初湫堂芊签儿串串香火锅(平凉路店),平凉路2307号文通国际广场,杨浦区,上海市,餐饮服务;中餐厅;火锅店,31.276586261377165,121.54579774275687
食鸡社肥肠鸡专营店(葫芦市集),伟成路68号一层葫芦市集内,杨浦区,上海市,餐饮服务;中餐厅;火锅店,31.307697050409892,121.50603782154417
心怡火锅,赤峰路631号(近四平路),杨浦区,上海市,餐饮服务;中餐厅;火锅店,31.281876641648623,121.49706177861393
洞子张老匠火锅(五角场店),国定路333号2号楼三号湾广场2层,杨浦区,上海市,餐饮服务;中餐厅;火锅店,31.298830114454024,121.50488545917027
钢管厂五区小郡肝火锅串串香总部直营店,[],杨浦区,上海市,餐饮服务;中餐厅;火锅店,31.267214915508607,121.53440022314065
捞围鲜港式打边炉(五角场店),国定东路245号1楼,杨浦区,上海市,餐饮服务;中餐厅;火锅店,31.30102162800019,121.51604042358856
那年那班串串香火锅(上理店),图们路6号1楼,杨浦区,上海市,餐饮服务;中餐厅;火锅店,31.291018003116307,121.54515691250323
天复饭店,国和路1053号,杨浦区,上海市,餐饮服务;中餐厅;火锅店,31.320115141830154,121.5270051167752
厂外香钢管厂小月君肝串串香(中原城市广场3座),国和路777号中原城市广场3座F1层3104,杨浦区,上海市,餐饮服务;中餐厅;火锅店,31.31735477228341,121.51797464343947
凯茂老北京热气羊肉火锅,杭州路与隆昌路交叉口东南50米,杨浦区,上海市,餐饮服务;中餐厅;火锅店,31.271565048305586,121.54417801315357
富真老北京涮羊肉,松潘路144-146号,杨浦区,上海市,餐饮服务;中餐厅;火锅店,31.26348241697288,121.53603731944081
三味盱眙龙虾老北京羊蝎子,眉州路760号,杨浦区,上海市,餐饮服务;中餐厅;火锅店,31.269254627023813,121.52666329162807
海底捞火锅(吴中路店),吴中路1100号天弘商务楼1-2层,闵行区,上海市,餐饮服务;中餐厅;火锅店,31.17952616185716,121.38177515906794
元世祖涮羊肉(金汇路店),金汇路463弄28号金石广场,闵行区,上海市,餐饮服务;中餐厅;火锅店,31.179797166044146,121.3685043077097
傣妹(七宝店),漕宝路3509汇宝购物广场7层,闵行区,上海市,餐饮服务;中餐厅;火锅店,31.15783885202879,121.34514467786747
蕴道港式海鲜火锅,虹梅路3338号21D,闵行区,上海市,餐饮服务;中餐厅;海鲜酒楼|餐饮服务;中餐厅;火锅店,31.193198959689354,121.38393240652788
海底捞火锅(龙茗路店),龙茗路1300弄58号古美生活购物广场3层,闵行区,上海市,餐饮服务;中餐厅;火锅店,31.145478378131774,121.38097275620926
重庆临江门老火锅(七莘路店),七莘路3166号,闵行区,上海市,餐饮服务;中餐厅;火锅店,31.159962353912935,121.34252093819282
老北京涮羊肉羊蝎子,颛桥镇中沟路212号(近颛兴路),闵行区,上海市,餐饮服务;中餐厅;火锅店,31.067355575161418,121.39102578204594
拿渡麻辣香锅(虹桥综合交通枢纽),虹桥路2550号虹桥综合交通枢纽B1层B1-32,闵行区,上海市,餐饮服务;中餐厅;火锅店|餐饮服务;中餐厅;特色/地方风味餐厅,31.195790279340272,121.316443130483
旺晖火锅城(沪闵路店),沪闵路241号,闵行区,上海市,餐饮服务;中餐厅;火锅店,31.007334792671504,121.41921246865842
天都火锅酒楼(虹梅南路店),虹梅南路1008号,闵行区,上海市,餐饮服务;中餐厅;火锅店,31.125543949490584,121.41977490702865
德庄火锅(七宝店),七莘路1726号,闵行区,上海市,餐饮服务;中餐厅;火锅店,31.137782120940212,121.35847926537052
新都火锅(莲花南路店),莲花南路1560号(近银都路),闵行区,上海市,餐饮服务;中餐厅;火锅店,31.097859508040166,121.40965203148083
老北京涮羊肉羊蝎子(金平路店),金平路388号,闵行区,上海市,餐饮服务;中餐厅;火锅店,31.016482320316758,121.4051116897093
小尾羊(春申店),春申路2688号,闵行区,上海市,餐饮服务;中餐厅;火锅店,31.110196954430002,121.40225863301049
小肥羊火锅(民主路店),民主路8号1-3层小肥羊火锅餐厅,闵行区,上海市,餐饮服务;中餐厅;火锅店,31.15616354711506,121.3475838886489
日日旺火锅城(吴中路店),吴中路828号(近虹梅路),闵行区,上海市,餐饮服务;中餐厅;火锅店,31.18180166579511,121.38790810123328
好骨气(南方商城店),古方路76号南方休闲广场台湾风情街4层,闵行区,上海市,餐饮服务;中餐厅;火锅店,31.13513492719357,121.39712585488573
聚羊阁热气涮羊肉(罗锦路店),上海市闵行区罗锦路951号,闵行区,上海市,餐饮服务;中餐厅;火锅店,31.124794252599692,121.39188753579415
重庆鸡公煲烤鱼(万科店),申长路1209弄2号101,闵行区,上海市,餐饮服务;中餐厅;火锅店,31.20357819668644,121.30746346462422
捞一锅羊蝎子火锅(南方店),古方路76号南方休闲广场207号,闵行区,上海市,餐饮服务;中餐厅;火锅店,31.135726618511097,121.39684880951637
捞王锅物料理(吴中店),吴中路1100号炫润国际大厦2层,闵行区,上海市,餐饮服务;中餐厅;火锅店,31.179056777556102,121.38121863827632
丽国饭店(爱博店),申滨路990号良华购物广场2层2室,闵行区,上海市,餐饮服务;中餐厅;火锅店,31.21248172832564,121.30533630282078
8号海鲜火锅(都市路店),都市路3825弄好爱广场8幢8号,闵行区,上海市,餐饮服务;中餐厅;火锅店,31.09048588915103,121.39341214129739
吴记鲜定味(吴中路店),吴中路1050号(莲花路口北面)盛世莲花广场东楼1层,闵行区,上海市,餐饮服务;中餐厅;火锅店,31.180821707516102,121.38301612081321
环岛海鲜火锅,红松东路1116号御花园酒店1层(近虹许路),闵行区,上海市,餐饮服务;中餐厅;火锅店,31.189391027655713,121.39012449524321
台北吴记麻辣火锅(七宝店),沪松公路50号(七莘路沪松公路),闵行区,上海市,餐饮服务;中餐厅;火锅店,31.156470698271736,121.34279067410189
老北京涮羊肉羊蝎子,江文路559弄58号,闵行区,上海市,餐饮服务;中餐厅;火锅店,31.06282071703983,121.53159483698417
农家鸡火锅,水清路697号(近报春路),闵行区,上海市,餐饮服务;中餐厅;火锅店,31.123607724568306,121.37318832962339
渝悦楼火锅(颛兴路店),颛兴路614号(703终点站对面),闵行区,上海市,餐饮服务;中餐厅;火锅店,31.066928771520498,121.38607104453347
大渝火锅(仲盛店),都市路5001号仲盛世界商城4层28号,闵行区,上海市,餐饮服务;中餐厅;火锅店,31.109399605028777,121.381439515468
左庭右院(虹桥天街店),申滨南路1126号龙湖虹桥天街购物中心A馆F3层A-L3-17,闵行区,上海市,餐饮服务;中餐厅;火锅店,31.193892021801325,121.30852397730021
煲宫(七宝万科广场),漕宝路3366号七宝万科广场F5层515B,闵行区,上海市,餐饮服务;中餐厅;火锅店,31.156187194621673,121.34602502507323
木萨火锅店(浦江店),召楼路2370弄夏威夷广场2362号,闵行区,上海市,餐饮服务;中餐厅;火锅店,31.06483503138592,121.53382536030016
大渝火锅(七宝万科店),漕宝路3366号七宝万科广场F1层139D,闵行区,上海市,餐饮服务;中餐厅;火锅店,31.15659766140132,121.34679443383216
乡水源,中庚·漫游城2层,闵行区,上海市,餐饮服务;中餐厅;火锅店,31.132921423363154,121.39394835432287
豆捞坊(浦江店),江月路浦江城市生活广场3层301室,闵行区,上海市,餐饮服务;中餐厅;火锅店,31.08478960039401,121.50028802514498
全兴藏书羊肉(华漕店),华漕镇繁兴路399弄1号1层112室(大润发超市西门),闵行区,上海市,餐饮服务;中餐厅;火锅店,31.21216109002295,121.28739159632768
大渝火锅(仲盛店),莘庄都市路5001号仲盛世界商场4层,闵行区,上海市,餐饮服务;中餐厅;火锅店,31.108629566625716,121.38213404482113
仕堂川味老火锅,莲花南路1500弄16号中国银行大门隔壁一楼(麦多生活广场),闵行区,上海市,餐饮服务;中餐厅;火锅店,31.099792591943228,121.40795584334765
蜀火火锅(江文路店),浦江镇江文路459号国美电器四楼,闵行区,上海市,餐饮服务;中餐厅;火锅店,31.06321329911065,121.53314146031343
牛牛捞(龙茗路店),龙茗路999号(周渝食惦酸菜鱼旁),闵行区,上海市,餐饮服务;中餐厅;火锅店,31.139333930561108,121.3820344543619
东来顺(维璟广场),七莘路1507号维璟广场F2层L2-015-X1,闵行区,上海市,餐饮服务;中餐厅;火锅店,31.132169460577067,121.35894995563902
稻香蛙,罗锦路949号,闵行区,上海市,餐饮服务;中餐厅;火锅店,31.124818287137916,121.391702586899
仕唐火锅,梅陇镇莲花南路麦多广场1500弄16号,闵行区,上海市,餐饮服务;中餐厅;火锅店,31.09973555896377,121.40781276921842
龙庄老火锅,莘东路100号-12临(龙之梦南行50米),闵行区,上海市,餐饮服务;中餐厅;火锅店,31.108298386796854,121.37394479643568
左庭右院(七宝万科广场),漕宝路3366号七宝万科广场B1层B101D,闵行区,上海市,餐饮服务;中餐厅;火锅店,31.15649561137184,121.3451118612177
吴老幺火锅(北桥店),北松公路121号2层,闵行区,上海市,餐饮服务;中餐厅;火锅店,31.04432444843857,121.40289251369308
酸菜鱼火锅(虹中路店),虹桥镇虹中路772号,闵行区,上海市,餐饮服务;中餐厅;火锅店,31.19029504753259,121.37302672336781
八零牛馆(罗锦路店),梅陇镇虹梅南路罗锦路42号,闵行区,上海市,餐饮服务;中餐厅;火锅店,31.126112479021025,121.41629505587608
川福老火锅(颛桥店),颛桥镇颛兴路608号,闵行区,上海市,餐饮服务;中餐厅;火锅店,31.067058532391318,121.386407843884
鲜羊府(古美西路店),古美西路176号(原名老北京涮肉馆),闵行区,上海市,餐饮服务;中餐厅;火锅店,31.136728277413024,121.39461091666428
刘一手火锅(都会路店),都会路3538号,闵行区,上海市,餐饮服务;中餐厅;火锅店,31.084927709279594,121.4074618634406
家福火锅(华漕店),华漕镇纪翟路108号(近诸翟镇),闵行区,上海市,餐饮服务;中餐厅;火锅店,31.20850031881197,121.29113918007731
那年那班串串香火锅,莲花南路1388弄7号2楼,闵行区,上海市,餐饮服务;中餐厅;火锅店,31.102417556253876,121.40660491254121
烜辣重庆火锅,金平路545号,闵行区,上海市,餐饮服务;中餐厅;火锅店,31.018688950429183,121.40488040678238
吴老幺火锅(马桥店),银春路1955弄71号112-113室,闵行区,上海市,餐饮服务;中餐厅;火锅店,31.027511457390247,121.38861616396076
部落情&卤味火锅,剑川路146号,闵行区,上海市,餐饮服务;中餐厅;火锅店,31.043842066269494,121.46188595217563
辣府(碧江广场店),鹤庆路900号碧江广场2号楼2层辣府火锅,闵行区,上海市,餐饮服务;中餐厅;火锅店,31.008252072692812,121.40003102865185
尚百味时尚涮吧,莘庄镇莘建路23-5号,闵行区,上海市,餐饮服务;中餐厅;火锅店,31.10943089525246,121.37486068797037
爵士涮吧,"永平路94号,98号,102号",闵行区,上海市,餐饮服务;中餐厅;火锅店,31.015442531217214,121.42827434725525
海底捞火锅(龙盛广场店),颛桥镇都市路3759号龙盛国际广场3层,闵行区,上海市,餐饮服务;中餐厅;火锅店,31.086810772531646,121.39453726095518
辣中缘火锅(浦江店),召楼路2384号附近,闵行区,上海市,餐饮服务;中餐厅;火锅店,31.06562588043348,121.5335374400874
将军邸鲜牛肉美蛙鱼火锅,龙茗路999号(顾戴路),闵行区,上海市,餐饮服务;中餐厅;火锅店,31.138861170891,121.38205348093679
火元甲,景联路257号品辉超市楼上,闵行区,上海市,餐饮服务;中餐厅;火锅店,31.102193695164637,121.4437918530781
贵州黄牛肉馆.烧烤,吴泾镇尚义路187号(近永德路),闵行区,上海市,餐饮服务;中餐厅;火锅店,31.043076912242267,121.44654657873573
渔家灯火酸菜鱼(七宝店),七宝镇七莘路3599弄华商时代广场2层221室,闵行区,上海市,餐饮服务;中餐厅;火锅店,31.164828250086767,121.33678184203738
格老子老火锅(航北路店),七宝镇航北路218号二楼,闵行区,上海市,餐饮服务;中餐厅;火锅店,31.17546656775108,121.35059431571817
四川香天下火锅(吴中路店),吴中路682号金虹桥商务广场C座2层,闵行区,上海市,餐饮服务;中餐厅;火锅店,31.183551452389533,121.39184443886803
三不牛腩火锅店(永德路),永德路419号弘基生活广场1-116号,闵行区,上海市,餐饮服务;中餐厅;火锅店,31.042886896789884,121.45158355848257
渝味晓宇火锅(吴中路店),吴中路1389号4幢1层117室,闵行区,上海市,餐饮服务;中餐厅;火锅店,31.17464928184835,121.36983799713624
川流不息回转小火锅,永德路194号,闵行区,上海市,餐饮服务;中餐厅;火锅店,31.045119735467345,121.45926098545019
熊猫老灶火锅(万象城店),吴中路1599号L434,闵行区,上海市,餐饮服务;中餐厅;火锅店,31.17215567547671,121.36468238685057
海底捞火锅(莲花南路店),莲花南路3999弄8号,闵行区,上海市,餐饮服务;中餐厅;火锅店,31.041500644560617,121.44086937985531
海底捞火锅(浦江万达店),永跃路360号4F,闵行区,上海市,餐饮服务;中餐厅;火锅店,31.029374074047542,121.50688523589973
四川香天下火锅(吴泾店),吴泾镇剑川路438号宝龙广场澳门街,闵行区,上海市,餐饮服务;中餐厅;火锅店,31.039850539487645,121.44642756168174
牛莽莽四川火锅(浦江店),江月路1850弄1-6号浦江城市生活广场D座2层D03,闵行区,上海市,餐饮服务;中餐厅;火锅店,31.084844379370477,121.50055899353274
美食每客火锅(春都路店),春都路233号101A座,闵行区,上海市,餐饮服务;中餐厅;火锅店,31.084172672859697,121.4121650110145
小尾羊火锅(石屏路店),石屏路383号(东川路地铁站对面),闵行区,上海市,餐饮服务;中餐厅;火锅店,31.019204133541262,121.41496101920552
重庆高老九火锅(中庚城店),中庚·漫游城3层,闵行区,上海市,餐饮服务;中餐厅;火锅店,31.13294644461773,121.3937433897608
白白叫重庆美蛙鱼头火锅,华漕镇繁兴路479号127-128室,闵行区,上海市,餐饮服务;中餐厅;火锅店,31.214287334893758,121.28720673674196
川上行重庆火锅(闵行店),永德路383-1号永德生活广场,闵行区,上海市,餐饮服务;中餐厅;火锅店,31.04331636981528,121.45278676679763
漫食汇阿木龙虾馆烤鱼火锅,江文路559弄54号,闵行区,上海市,餐饮服务;中餐厅;火锅店,31.06286835226165,121.53226686534992
曦食尚鲜牛火锅(颛桥店),颛桥镇中沟路236号,闵行区,上海市,餐饮服务;中餐厅;火锅店,31.0678993029649,121.39089377843013
八零牛馆(约好休闲广场店),都会路3538号(约好休闲广场),闵行区,上海市,餐饮服务;中餐厅;火锅店,31.084474385743977,121.40838741611377
吼爽老卤火锅(金汇南路店),金汇南路188号,闵行区,上海市,餐饮服务;中餐厅;火锅店,31.172904693927276,121.37316207866567
一块烫,虹桥镇虹梅路3337号汇映中心1楼北门,闵行区,上海市,餐饮服务;中餐厅;火锅店,31.19246096700615,121.37993953350136
锅季自然食光,申滨南路1126号龙湖虹桥天街购物中心A馆F2层,闵行区,上海市,餐饮服务;中餐厅;火锅店,31.194942051645025,121.30822354524085
吴老幺火锅(碧江广场店),鹤庆路900号老闵行碧江广场1号楼3层,闵行区,上海市,餐饮服务;中餐厅;火锅店,31.008339969181225,121.39944194979641
秀丽三峡火锅城(浦江店),浦江镇三鲁公路2659号康华路交汇口,闵行区,上海市,餐饮服务;中餐厅;火锅店,31.07096476686476,121.52079273419889
牛本道潮汕牛肉火锅(莘庄店),莘庄镇莘沥路522号(近西环路),闵行区,上海市,餐饮服务;中餐厅;火锅店,31.110041837620322,121.36234135283374
潮汕鲜牛肉火锅,申长路869号A区3楼17号左庭右院,闵行区,上海市,餐饮服务;中餐厅;火锅店,31.193734971666778,121.30859383760807
凑凑火锅(百联南方购物中心),沪闵路7388号百联南方购物中心5F层,闵行区,上海市,餐饮服务;中餐厅;火锅店,31.133963617313817,121.3959680082972
渝利火锅(维璟广场店),七莘路1507号维璟广场4层,闵行区,上海市,餐饮服务;中餐厅;火锅店,31.13242980358824,121.35861350126324
德荣老北京铜锅(虹井路店),虹井路745-751号,闵行区,上海市,餐饮服务;中餐厅;火锅店,31.187007718482377,121.36423876068697
谭鸭血老火锅(浦江万达店),浦江镇永跃路360号浦江万达广场4楼4070-4071,闵行区,上海市,餐饮服务;中餐厅;火锅店,31.03006383277954,121.50761978003045
海底捞火锅(绚荟城店),莲花南路1388弄绚荟城购物中心2层,闵行区,上海市,餐饮服务;中餐厅;火锅店,31.10296923505065,121.40656784677422
牛垚潮汕牛肉火锅(鹤庆路店),鹤庆路900号1号楼3层318室,闵行区,上海市,餐饮服务;中餐厅;火锅店,31.008570841572325,121.39954994153763
传奇地锅,永德路656号,闵行区,上海市,餐饮服务;中餐厅;火锅店,31.043073961838623,121.44939678898108
刘一手火锅(吴中商务大厦店),虹桥镇吴中路1099号吴中商务大厦3楼,闵行区,上海市,餐饮服务;中餐厅;火锅店,31.17842195418863,121.38143052491668
山枝鲜(虹桥天地南区购物中心),申长路900号虹桥天地南区购物中心L3层,闵行区,上海市,餐饮服务;中餐厅;火锅店,31.194174554882746,121.3103309726572
有拈头成都市井火锅(七宝店),新龙路98号,闵行区,上海市,餐饮服务;中餐厅;火锅店,31.16068215134775,121.34879609516953
来一锅骨头王火锅(航华店),航北路369号,闵行区,上海市,餐饮服务;中餐厅;火锅店,31.173542741978864,121.34688478627608
海底捞火锅(七莘路店),七宝镇七莘路3755号巴黎春天商场4层,闵行区,上海市,餐饮服务;中餐厅;火锅店,31.167391924366175,121.33570498651395
蜀火传奇,江文路459号4层,闵行区,上海市,餐饮服务;中餐厅;火锅店,31.063361647953798,121.53290975533008
海底捞火锅(舟虹路店),"申长路799号,龙湖天街购物中心B馆3楼",闵行区,上海市,餐饮服务;中餐厅;火锅店,31.193330841912214,121.3093182805302
捞王火锅(虹桥天地南区购物中心),申长路900号虹桥天地南区购物中心L5层L5-11,闵行区,上海市,餐饮服务;中餐厅;火锅店,31.19415136869398,121.31043773827017
巴实重庆老火锅(虹桥新华联店),申滨路473号新华联购物中心B1层28-29号,闵行区,上海市,餐饮服务;中餐厅;火锅店,31.202650304739294,121.30487912464305
嗨锅(虹桥天地店),申长路900号虹桥天地南区购物中心L4层L4-22&23,闵行区,上海市,餐饮服务;中餐厅;火锅店,31.19504470127608,121.31055939219955
蜀都添香东巴骨头王火锅餐厅,七宝镇七宝商业街餐饮区2号,闵行区,上海市,餐饮服务;中餐厅;火锅店,31.15670667150875,121.34161413091833
好莱喔涮涮煲(古美店),东兰路258-83号,闵行区,上海市,餐饮服务;中餐厅;火锅店,31.15948312742965,121.39562581855651
盛王府,航北路219号-2,闵行区,上海市,餐饮服务;中餐厅;火锅店,31.17518239371259,121.35078996437944
渔家谣(碧江广场店),鹤庆路900号碧江生活广场3号楼2层,闵行区,上海市,餐饮服务;中餐厅;火锅店,31.00863991746733,121.4006670924746
左庭右院鲜牛肉火锅(南方商城店),沪闵路7388号百联南方购物中心5F层,闵行区,上海市,餐饮服务;中餐厅;火锅店,31.134477359874857,121.39573898208671
大龙燚火锅(虹井路店),虹井路188号新华·红星国际广场F2层206,闵行区,上海市,餐饮服务;中餐厅;火锅店,31.177880358667384,121.36745590482818
啥子老火锅上海浦江店,浦锦路309弄35号,闵行区,上海市,餐饮服务;中餐厅;火锅店,31.07840316469433,121.49292910479457
麻十七重庆老麻火锅,漕宝路3299弄宝龙城市广场15号S1楼1层1019B,闵行区,上海市,餐饮服务;中餐厅;火锅店,31.16056700575778,121.34952168358343
潭鸭血老火锅,都市路5001号仲盛世界商城5层514B号,闵行区,上海市,餐饮服务;中餐厅;火锅店,31.108597338218853,121.38251476252874
捞王(仲盛世界商城),都市路5001号仲盛世界商城F4层4F27A,闵行区,上海市,餐饮服务;中餐厅;火锅店,31.109249884734766,121.38115275689819
老相好在成都(永平路店),永平路106号,闵行区,上海市,餐饮服务;中餐厅;火锅店|餐饮服务;中餐厅;湖南菜(湘菜),31.015588350617048,121.42820422122665
一带一炉旋转小火锅(航北路),七宝镇航北路685号,闵行区,上海市,餐饮服务;中餐厅;火锅店,31.17219479118582,121.34379023056854
六丁定食烧锅(七宝万科广场店),漕宝路3366号七宝万科广场B1层B101A,闵行区,上海市,餐饮服务;中餐厅;火锅店,31.156792379912442,121.34515574564698
今日牛事潮州牛肉火锅,虹桥镇虹井路787号1-2层、789号1层,闵行区,上海市,餐饮服务;中餐厅;火锅店,31.187746699109525,121.3639661079426
盛宴食府(天山西路店),天山西路4158-2号,闵行区,上海市,餐饮服务;中餐厅;火锅店,31.216354789001272,121.30538486677104
重庆鸡公煲(曹行店),虹梅南路3082弄街北17号,闵行区,上海市,餐饮服务;中餐厅;火锅店,31.09188946921987,121.43241088770236
牛庄汕头牛肉火锅,漕宝路1539号闽秀美食广场1层(虹莘路),闵行区,上海市,餐饮服务;中餐厅;火锅店,31.16002659479849,121.37290749346542
虾满堂(漕宝路店),龙茗路2113号2层,闵行区,上海市,餐饮服务;中餐厅;火锅店,31.158062619740384,121.37725299683085
海底捞火锅(爱琴海购物公园店),虹井路120弄6号爱琴海购物公园5层F520a-F521室,闵行区,上海市,餐饮服务;中餐厅;火锅店,31.17753945096238,121.36838266769439
潮日鲜潮汕牛肉火锅(永德路店),吴泾镇永德路319号,闵行区,上海市,餐饮服务;中餐厅;火锅店,31.0438990490562,121.45537789006497
锅涨涨养生海鲜火锅,航北路218号2楼,闵行区,上海市,餐饮服务;中餐厅;火锅店,31.17543870743456,121.35051746606729
潮汕小牛哥牛肉火锅(都市路店),颛桥镇莘庄都市路3825弄1号103号爱广场靠近金都路,闵行区,上海市,餐饮服务;中餐厅;火锅店,31.088726721321773,121.39434512419675
尚上签串串香,-浦江镇三鲁公路2667号,闵行区,上海市,餐饮服务;中餐厅;火锅店,31.072740408039074,121.51813768622806
品滋意重庆老火锅(南方商城店),沪闵路7398号22幢103室,闵行区,上海市,餐饮服务;中餐厅;火锅店,31.134889092493037,121.39636290248035
潮品全牛潮汕鲜牛肉火锅,东兰路288号1-116号,闵行区,上海市,餐饮服务;中餐厅;火锅店,31.15890850444001,121.39490794793157
臻品缘(华师大店),吴泾镇广南路700号101室,闵行区,上海市,餐饮服务;中餐厅;火锅店,31.03787219665812,121.45565117618143
谭鸭血老火锅(龙湖虹桥天街店),申长路龙湖虹桥天街869号一层128a,闵行区,上海市,餐饮服务;中餐厅;火锅店,31.193811598278614,121.308230626587
游园觅食记,申长路1245号,闵行区,上海市,餐饮服务;中餐厅;火锅店,31.204364576660897,121.30868871865101
煲宫,中庚·漫游城5层,闵行区,上海市,餐饮服务;中餐厅;火锅店,31.132722564352527,121.39374840826568
潮汕牛冠牛肉火锅,都市路3825弄好爱广场7号楼125-128号(都市路梅洲路),闵行区,上海市,餐饮服务;中餐厅;火锅店,31.089937136872823,121.39374712285975
黔岭牛庄(浦江城市生活广场店),江月路1850弄城市生活广场B座4层B02-1,闵行区,上海市,餐饮服务;中餐厅;火锅店,31.08461562461409,121.49959454852146
川福时尚干锅,华漕镇纪翟路104号二楼,闵行区,上海市,餐饮服务;中餐厅;火锅店,31.208353891463556,121.29146558838578
于小签老成都串串香(龙茗路店),七宝镇龙茗路2726号一层,闵行区,上海市,餐饮服务;中餐厅;火锅店,31.16384257420897,121.37729944895315
新辣道鱼火锅(凯德龙之梦购物中心莘庄店),沪闵路6088号凯德龙之梦购物中心(莘庄店)F4层04-21,闵行区,上海市,餐饮服务;中餐厅;火锅店|餐饮服务;中餐厅;上海菜,31.109681149912028,121.37444112462035
老北京美食,曙建路190-2号,闵行区,上海市,餐饮服务;中餐厅;北京菜|餐饮服务;中餐厅;火锅店,31.094188111765114,121.41373843784686
杨四金牌龙虾馆(莘庄店),莘庄镇西环路301号5号,闵行区,上海市,餐饮服务;中餐厅;火锅店|餐饮服务;中餐厅;海鲜酒楼,31.10914659315083,121.36140791081635
部落情火锅(江川店),江川路291弄44号,闵行区,上海市,餐饮服务;中餐厅;火锅店,31.005160845817223,121.4128223678032
小梓康麻辣烫,莘庄镇莘朱路182号-2,闵行区,上海市,餐饮服务;中餐厅;火锅店,31.109269259817758,121.38060420277186
捞围鲜港式打边炉(颛桥万达店),都市路2700号4楼4026室,闵行区,上海市,餐饮服务;中餐厅;火锅店,31.07251106996209,121.40209085914822
海底捞火锅(中骏广场店),申长路1688弄中骏广场2期2栋1层,闵行区,上海市,餐饮服务;中餐厅;火锅店,31.21499514883347,121.3083066448283
易锅·农家菜(闵行春申店),莲花南路1201号尚乐坊103号,闵行区,上海市,餐饮服务;中餐厅;火锅店,31.106870088535505,121.40661052910791
小龙坎老火锅(百联南方购物中心),沪闵路7388号百联南方购物中心5F层,闵行区,上海市,餐饮服务;中餐厅;火锅店,31.133271975503515,121.39616005502403
熊苗老灶火锅,中庚·漫游城4层,闵行区,上海市,餐饮服务;中餐厅;火锅店,31.132925418905128,121.39396235148547
老北京涮肉,虹桥镇紫藤路220号2楼,闵行区,上海市,餐饮服务;中餐厅;火锅店,31.17563532283879,121.35988263133417
月光下的毡房(中谊路店),中谊路769号1-2层,闵行区,上海市,餐饮服务;中餐厅;火锅店,31.1424087066466,121.35315034555796
重庆正味火锅(品尚生活广场店),纪翟路2762号品尚生活广场1号106室,闵行区,上海市,餐饮服务;中餐厅;火锅店,31.242706110681656,121.2655091439718
巴适火锅,虹桥镇申滨路473号(近泰虹路)新华联国际中心负一楼,闵行区,上海市,餐饮服务;中餐厅;火锅店,31.202694965358372,121.30449593959376
巴蜀椒辣重庆老火锅,鑫都路2528号附近,闵行区,上海市,餐饮服务;中餐厅;火锅店,31.05831848761548,121.39203426167195
老九发鱼头鸡煲专门店,虹梅路3219-18号,闵行区,上海市,餐饮服务;中餐厅;火锅店,31.189605455996844,121.38276154030703
九鼎脆毛肚火锅(颛桥万达店),"都市路2700号,万达广场四楼",闵行区,上海市,餐饮服务;中餐厅;火锅店,31.073614286544633,121.40119256468316
辣斗辣火锅(龙柏店),紫藤路237号,闵行区,上海市,餐饮服务;中餐厅;火锅店,31.176152600758034,121.359499222935
羊门虎匠(龙柏店),红松路269号,闵行区,上海市,餐饮服务;中餐厅;火锅店,31.182528982474672,121.3597732142777
天鸿涮肉(紫藤路店),紫藤路235号,闵行区,上海市,餐饮服务;中餐厅;火锅店,31.176177776362433,121.35936644229062
印象成都(三鲁公路店),浦江镇三鲁公路2659号聚浦商场旁,闵行区,上海市,餐饮服务;中餐厅;火锅店,31.070998730980282,121.52078671135217
吴老幺老火锅(永平路店),永平路135号,闵行区,上海市,餐饮服务;中餐厅;火锅店,31.016085742611832,121.4279698008707
江边码头,浦江镇夏威夷广场召楼路2368-一室,闵行区,上海市,餐饮服务;中餐厅;火锅店,31.06494073279493,121.53372706005172
一牛九品潮汕牛肉火锅(上中西路店),上中西路726号(梅陇公园东侧),闵行区,上海市,餐饮服务;中餐厅;火锅店,31.13331094810326,121.41278624712749
小肥羊火锅(黄兴路店),梅陇镇泸闵路7866号莲花国际广场二楼,闵行区,上海市,餐饮服务;中餐厅;火锅店,31.135070967583886,121.3985408918151
旋转小板凳小火锅,普杰路105号,闵行区,上海市,餐饮服务;中餐厅;火锅店,31.11748602783801,121.41839702343717
澳洲牛肉自助小火锅,七莘路3567号附近,闵行区,上海市,餐饮服务;中餐厅;火锅店,31.16476239616543,121.33889624799497
七欣天品蟹轩(七宝店),漕宝路3509号汇宝购物广场A座7层,闵行区,上海市,餐饮服务;中餐厅;火锅店,31.157814340029436,121.34487124097376
红料理|串串有瘾(龙柏店),虹井路120弄新华国际广场1层N106(先锋路上),闵行区,上海市,餐饮服务;中餐厅;火锅店,31.177892624589145,121.36722622280112
老北京涮羊肉(航东路店),航东路788弄1号(沪青平公路151号),闵行区,上海市,餐饮服务;中餐厅;火锅店,31.18311288400534,121.34866241694284
独一品无限量自助,纪翟路2791号6栋二层201室,闵行区,上海市,餐饮服务;中餐厅;火锅店,31.2460545869733,121.26415713709409
龙王点兵港式打边炉,浦江镇江文路459号1F-1,闵行区,上海市,餐饮服务;中餐厅;火锅店,31.063318652987657,121.53290173488706
重庆老火锅,梅陇镇曙建路65号-2,闵行区,上海市,餐饮服务;中餐厅;火锅店,31.09398776410833,121.41308289991244
壹食一焖锅饭,虹井路120弄1号上海之眼风情街1楼122-123,闵行区,上海市,餐饮服务;中餐厅;火锅店,31.17764998939509,121.36702352710113
蘸料食代,浦江镇竹园路192号,闵行区,上海市,餐饮服务;中餐厅;火锅店,31.072770095451364,121.51660648596925
山城美蛙火锅,金平路545号重庆烜辣山城,闵行区,上海市,餐饮服务;中餐厅;火锅店,31.018771891309147,121.40484738668708
莽子火锅,剑川路438弄吴泾宝龙广场29幢3号101,闵行区,上海市,餐饮服务;中餐厅;火锅店,31.0392317997943,121.44637949628002
极品地锅,华漕镇北翟路2000弄111号,闵行区,上海市,餐饮服务;中餐厅;火锅店,31.227493105634675,121.32633486059385
红料理|串串有瘾(莘庄店),沪闵路6088号龙之梦B2层-57(沪闵路下沉式广场),闵行区,上海市,餐饮服务;中餐厅;火锅店,31.109966082362643,121.37434620464464
七婆串串火锅,马桥镇江川路1553号,闵行区,上海市,餐饮服务;中餐厅;火锅店,30.996148830790144,121.36837838139087
俊航邓氏小肫肝砂锅串串,曙建路106号一层B室,闵行区,上海市,餐饮服务;中餐厅;火锅店,31.094668091069188,121.41539490121292
老北京羊蝎子火锅,浦江镇闸航路2499号,闵行区,上海市,餐饮服务;中餐厅;火锅店,31.021482044316652,121.53294733756776
熬八年火锅,申长路900号虹桥天地新天地D座L2-3层,闵行区,上海市,餐饮服务;中餐厅;火锅店,31.197028505255684,121.31121476752723
唐朝羊蝎子,[],闵行区,上海市,餐饮服务;中餐厅;火锅店,31.121929091896032,121.361764235179
左庭右院鲜牛肉火锅(仲盛世界商城店),都市路5001号仲盛世界商城4层,闵行区,上海市,餐饮服务;中餐厅;火锅店,31.109068421284817,121.38357696219836
锅SIr HOT POT,[],闵行区,上海市,餐饮服务;中餐厅;火锅店,31.011082379329483,121.3957436781878
小张哥麻辣烫冒菜,银都路3492号,闵行区,上海市,餐饮服务;中餐厅;火锅店,31.09322899002464,121.38800375214059
辣尚宫涮烤王主题餐吧,浦锦路309弄51、53、55、57号一层,闵行区,上海市,餐饮服务;中餐厅;火锅店,31.078721767458102,121.49285681838155
龙窑砂锅串串香(红松店),虹桥镇红松路204号,闵行区,上海市,餐饮服务;中餐厅;火锅店,31.18385186416773,121.36618717334764
花样美腩,龙吴路5855号,闵行区,上海市,餐饮服务;中餐厅;火锅店,31.037237477466835,121.46405216208991
秦渝川串串香火锅,莲花南路3999号与剑川路交叉口,闵行区,上海市,餐饮服务;中餐厅;火锅店,31.039458391564057,121.44063303101531
火锅店,汇舒路82号二楼,闵行区,上海市,餐饮服务;中餐厅;火锅店,31.03215252221704,121.51308977970591
那都不是锅浦江万达店,永乐路360号4F4077a,闵行区,上海市,餐饮服务;中餐厅;火锅店,31.02964081148543,121.50752849235087
辣中缘火锅,鹤翔路28弄2号,闵行区,上海市,餐饮服务;中餐厅;火锅店,31.04921575877277,121.40348526980226
炉班造串,永平路142号,闵行区,上海市,餐饮服务;中餐厅;火锅店,31.016163661897714,121.42794375238098
旺旺旺,江川路291弄8号,闵行区,上海市,餐饮服务;中餐厅;火锅店,31.00481061480814,121.41363407684895
德庄火锅(万达广场颛桥店),颛桥镇颛兴东路1559号万达广场(颛桥店)F4层4023,闵行区,上海市,餐饮服务;中餐厅;火锅店,31.072607076946532,121.4023999290854
海底捞火锅(七莘红点城店),七莘路1809弄红点城购物中心3层118号,闵行区,上海市,餐饮服务;中餐厅;火锅店,31.135964739767306,121.35803518012928
酒将军无限量火锅烤肉(宝秀路店),宝秀路663号2楼(肯德基向南约十米),闵行区,上海市,餐饮服务;中餐厅;火锅店,31.044390881628388,121.45955291046803
蜀火毛肚火锅(万辉国际店),虹梅南路863号3号楼2楼,闵行区,上海市,餐饮服务;中餐厅;火锅店,31.12665324618265,121.41753028540717
小辉哥火锅(凯德龙之梦购物中心莘庄店),沪闵路6088号凯德龙之梦购物中心(莘庄店)B1层,闵行区,上海市,餐饮服务;中餐厅;火锅店,31.110062814883978,121.37352911364957
大好特色羊蝎子,纪翟路2762号品尚生活广场1楼,闵行区,上海市,餐饮服务;中餐厅;火锅店,31.24268738800062,121.26514949257461
老北京涮羊肉羊蝎子(君莲宏润丽苑西),春都路430号约好休闲街110室,闵行区,上海市,餐饮服务;中餐厅;火锅店,31.084623146830268,121.40805621426804
小辉哥火锅(万达广场颛桥店),颛桥镇颛兴东路1559号万达广场(颛桥店)F4层4063,闵行区,上海市,餐饮服务;中餐厅;火锅店,31.07329657356981,121.4018287286547
稻香,吴泾镇广南路724号(近虹梅南路剑川路),闵行区,上海市,餐饮服务;中餐厅;火锅店,31.037804850486467,121.45506453053876
万琅自动化设备有限公司,秀文路898号5号楼18F,闵行区,上海市,餐饮服务;中餐厅;火锅店,31.12597948124379,121.35848328069787
徐记农家大院(都会路店),"都会路2849弄2号(雀之林精品酒店楼下,如海超市隔壁)",闵行区,上海市,餐饮服务;中餐厅;火锅店,31.08279182993734,121.4072619436223
尚海豆捞海鲜火锅(乐虹坊店),虹井路288号燎申虹桥国际中心B座6楼,闵行区,上海市,餐饮服务;中餐厅;火锅店,31.178768812362,121.36669788817191
君来顺四季涮肉(程家桥路店),程家桥路与程家桥路168弄交叉口西南50米,闵行区,上海市,餐饮服务;中餐厅;火锅店,31.189159476331017,121.3684895138853
熊猫老灶火锅(中庚漫游城店),万源路1-9号中庚漫游城4层-L419,闵行区,上海市,餐饮服务;中餐厅;火锅店,31.135613184099462,121.39284434832123
凯达石斑鱼(龙湖虹桥天街购物中心A馆),申滨南路1126号龙湖虹桥天街购物中心A馆F5层A-L5-25,闵行区,上海市,餐饮服务;中餐厅;火锅店|餐饮服务;中餐厅;海鲜酒楼,31.194765950834725,121.30832633536389
牛萌蒙音乐烤吧·串串香火锅,三鲁公路2999号5座1楼67-68号,闵行区,上海市,餐饮服务;中餐厅;火锅店,31.0769673102518,121.51753228396771
小胖子龙虾烧烤火锅,宾川路151号,闵行区,上海市,餐饮服务;中餐厅;火锅店,31.00644383394409,121.41082873854764
九鼎轩脆毛肚火锅(虹梅路店),虹梅路3279号(华光花园东门右侧、10号线龙溪路2号出口右拐直行),闵行区,上海市,餐饮服务;中餐厅;火锅店,31.189764570276182,121.38245675074513
传奇地锅(紫藤路店),虹桥镇紫藤路232号,闵行区,上海市,餐饮服务;中餐厅;火锅店,31.17588931295899,121.35979774979127
都市放牛潮汕牛肉火锅(浦江城市生活广场店),江月路1850号城市生活广场B1F-C06,闵行区,上海市,餐饮服务;中餐厅;火锅店,31.08527483736871,121.50012439667974
黔岭牛庄鲜牛肉火锅(乐虹坊店),虹桥镇虹井路288号乐虹坊2楼218B、220B,闵行区,上海市,餐饮服务;中餐厅;火锅店,31.17826251644428,121.36715928402512
麻十七重庆老麻火锅(浦江店),陈行公路2699号华侨城商业中心2期2层218-221,闵行区,上海市,餐饮服务;中餐厅;火锅店,31.09560463880523,121.49798784727618
京炉北京果木烤鸭火锅(古美店),东兰路288号1号楼201-205,闵行区,上海市,餐饮服务;中餐厅;火锅店,31.159020402633047,121.39528489320038
杨府霸道私房火锅(虹井路店),虹井路280弄2号楼虹桥晶座2层(近先锋街),闵行区,上海市,餐饮服务;中餐厅;火锅店,31.179108584940295,121.36758362158268
小郡肝火锅串串香(金平路店),金平路463号,闵行区,上海市,餐饮服务;中餐厅;火锅店,31.016733351220303,121.40563688778103
火锅先生(大食代虹桥天地店),申长路688号B1层26室虹桥天地购物中心大食代,闵行区,上海市,餐饮服务;中餐厅;火锅店,31.195147255393735,121.31131071550372
左庭右院鲜牛肉火锅(颛桥万达店),颛桥镇颛兴东路1559号万达广场(颛桥店)F4层4077&4076,闵行区,上海市,餐饮服务;中餐厅;火锅店,31.073039653817244,121.40144566621218
宝颐海鲜姿造(七莘路店),七莘路662号兴城商务广场内(莘庄华润万家正对面),闵行区,上海市,餐饮服务;中餐厅;火锅店,31.121774742537472,121.36849335906014
牛本道潮汕牛肉火锅(爱博店),天山西路4151号爱博新村旁,闵行区,上海市,餐饮服务;中餐厅;火锅店,31.2164533163657,121.3056223477716
街儿巷小郡肝串串香(红松路店),红松路398号,闵行区,上海市,餐饮服务;中餐厅;火锅店,31.183154255542522,121.36225415038183
不二锅小火锅外卖(闵行店),梅陇二村98号(梅东市场)27号门面,闵行区,上海市,餐饮服务;中餐厅;火锅店,31.13743211452564,121.40576148406126
鼎晟坊露天涮肉(合川路店),[],闵行区,上海市,餐饮服务;中餐厅;火锅店,31.17369046382537,121.37618670805585
新川福烧鸡公(纪翟路店),纪王镇纪翟路2780号,闵行区,上海市,餐饮服务;中餐厅;火锅店,31.244497893807957,121.26470775792909
无限量自助火锅烤肉(北桥店),沪闵路2400号北桥镇农贸市场2层,闵行区,上海市,餐饮服务;中餐厅;火锅店,31.043906469688146,121.4055895169863
蜀小五老城区牛蛙龙虾老火锅,莘庄工业区莘庄工业园区春光路762号,闵行区,上海市,餐饮服务;中餐厅;火锅店,31.091522609654785,121.37865344495792
品佳骨头王火锅(沈杜公路店),沈杜公路3131号,闵行区,上海市,餐饮服务;中餐厅;火锅店,31.065183647083835,121.52210355257432
钢管厂五区小郡肝串串香火锅(中庚漫游城店),万源路99弄3号401、402室,闵行区,上海市,餐饮服务;中餐厅;火锅店,31.134314820399602,121.39314239350288
虾雨老城区碳火蛙锅(天山西路店),天山西路4096号102、103、105室,闵行区,上海市,餐饮服务;中餐厅;火锅店,31.21707250757597,121.30646347953619
渝七婆市井老火锅(曹行店),曙建路80号,闵行区,上海市,餐饮服务;中餐厅;火锅店,31.09475929393505,121.4157131991806
三不牛腩,颛桥镇都市路2700号万达广场四楼4060号,闵行区,上海市,餐饮服务;中餐厅;火锅店,31.07356242947126,121.40186871490337
东来顺(虹桥天地南区购物中心),申长路900号虹桥天地南区购物中心L4层,闵行区,上海市,餐饮服务;中餐厅;火锅店,31.195032228492035,121.31027801633583
虹村正宗潮汕打边炉(合川路店),合川路2889号环镇南路口亲水花街,闵行区,上海市,餐饮服务;中餐厅;火锅店,31.173846844422233,121.37800490029123
爸爸炒料牛排老火锅(南方商城店),古方路76号3楼311-341室,闵行区,上海市,餐饮服务;中餐厅;火锅店,31.135306834787936,121.397127839921
哥老官(凯德龙之梦购物中心莘庄店),沪闵路6088号凯德龙之梦3层38号,闵行区,上海市,餐饮服务;中餐厅;火锅店,31.110117179776093,121.3731275700764
老北京羊蝎子火锅,莲花南路1188弄43号春城商业街76号(近春申路),闵行区,上海市,餐饮服务;中餐厅;火锅店,31.107840964518978,121.40759995075024
牛汁味跷脚牛杂火锅(都市路店),都市路4198号,闵行区,上海市,餐饮服务;中餐厅;火锅店,31.092449855418547,121.39306104627074
冰奇羊冰煮羊火锅,万源路中庚漫游城99弄3号403-404号,闵行区,上海市,餐饮服务;中餐厅;火锅店,31.1330083747173,121.39395934481207
小辉哥火锅(百联南方购物中心),沪闵路7388号百联南方购物中心5F层,闵行区,上海市,餐饮服务;中餐厅;火锅店,31.133743778472358,121.39548106980959
十六道牛味潮汕牛肉火锅(七宝店),七宝镇七莘路3088号2层,闵行区,上海市,餐饮服务;中餐厅;火锅店,31.158980759839697,121.34314471675836
高老九重庆老火锅(中庚城店),古美西路中庚街区3楼,闵行区,上海市,餐饮服务;中餐厅;火锅店,31.133579139036826,121.3935463729635
竹上签串串香火锅,华坪路12号附近,闵行区,上海市,餐饮服务;中餐厅;火锅店,31.003350771571014,121.41985956920408
火道佳骨头王火锅(春都路店),春都路233号101餐厅,闵行区,上海市,餐饮服务;中餐厅;火锅店,31.084172672859697,121.4121650110145
台湾吴记麻辣火锅(金汇总店),金汇路380号,闵行区,上海市,餐饮服务;中餐厅;火锅店,31.178743195935567,121.37076046675304
宽窄巷子成都串串香(石屏路店),石屏路337号一至二楼,闵行区,上海市,餐饮服务;中餐厅;火锅店,31.017979257281375,121.41547861265197
骨头王火锅羊蝎子(报春路店),[],闵行区,上海市,餐饮服务;中餐厅;火锅店,31.122655130951983,121.37330228100099
小郡肝串串香,颛桥镇春都路233号,闵行区,上海市,餐饮服务;中餐厅;火锅店,31.08432855259259,121.41211495850786
川福,江川路1551号101栋109-110室,闵行区,上海市,餐饮服务;中餐厅;火锅店,30.99620555949781,121.36946992942516
新招鲜·烤鱼(黄桦路店),黄桦路349号,闵行区,上海市,餐饮服务;中餐厅;火锅店,31.184321747219027,121.3593018436042
锅sir时尚火锅外卖(浦江店),浦锦街道江北燕路200号1层,闵行区,上海市,餐饮服务;中餐厅;火锅店,31.08176403802459,121.49886014858384
淘汰郎小火锅外卖(古方路辉溪美食城店),古方路76号地下一层1-9号,闵行区,上海市,餐饮服务;中餐厅;火锅店,31.13571162492708,121.39689180962088
金胶玉粤·胶原花胶鸡火锅PHOENIX Hotpot&Bar(龙茗路店),"龙茗路顾戴路口,十尚坊美食街一楼(星巴克和85C隔壁)",闵行区,上海市,餐饮服务;中餐厅;火锅店,31.13983780620341,121.38181557859325
渝都尚品火锅·炭烤(爱情海购物公园店),虹桥镇虹井路先锋街120弄1号瑞都大厦喜士多旁,闵行区,上海市,餐饮服务;中餐厅;火锅店,31.178027171130818,121.368410587668
蜀久香老成都串串香火锅(东兰路店),东兰路258-31号,闵行区,上海市,餐饮服务;中餐厅;火锅店,31.159389108049616,121.3965837621668
涮涮老北京火锅(沁春路店),沁春路397号,闵行区,上海市,餐饮服务;中餐厅;火锅店,31.09570712251082,121.36851458979503
重庆鸡公煲巫山烤全鱼(石锅鱼),浦江镇竹园路168号25幢28号,闵行区,上海市,餐饮服务;中餐厅;火锅店,31.07267342310997,121.51634861429149
巴椒蜀辣重庆老火锅(鑫都商业广场店),颛桥镇鑫都路2538号鑫都商业广场1号楼203室,闵行区,上海市,餐饮服务;中餐厅;火锅店,31.058500784483662,121.39058969645613
捞王锅物料理(凯德龙之梦购物中心莘庄店),沪闵路6088号凯德龙之梦购物中心(莘庄店)B1层B1-24,闵行区,上海市,餐饮服务;中餐厅;火锅店,31.109755072359857,121.37448007534037
六婆串串香火锅(闵行金平路店),金平路423号,闵行区,上海市,餐饮服务;中餐厅;火锅店,31.015805021836606,121.4059861222815
台北吴记老锅底麻辣火锅(龙湖虹桥天街购物中心A馆),申滨南路1126号龙湖虹桥天街购物中心A馆F4层A-L4-14,闵行区,上海市,餐饮服务;中餐厅;火锅店,31.193701026864463,121.30857288645146
朕元自动化设备,浦锦路2049弄,闵行区,上海市,餐饮服务;中餐厅;火锅店,31.1123761580669,121.47973953407634
齐珍辉龙虾城(莘潭路店),莘谭路311号(近莘西路),闵行区,上海市,餐饮服务;中餐厅;火锅店,31.110213977891693,121.3677244060986
拿渡麻辣香锅(仲盛世界商城),都市路5001号仲盛世界商城B1层B1F12B,闵行区,上海市,餐饮服务;中餐厅;火锅店,31.1091047205659,121.3830513282277
上海希敏自动化设备有限公司,东兰路248号香樟园5号楼2层206,闵行区,上海市,餐饮服务;中餐厅;火锅店,31.16054049235652,121.3969646495566
台北吴记麻辣火锅(红松路店),红松路198号,闵行区,上海市,餐饮服务;中餐厅;火锅店,31.183897556629532,121.36642083563754
上海佐立工业自动化设备有限公司,浦江镇新骏环路115号3号楼B304,闵行区,上海市,餐饮服务;中餐厅;火锅店,31.09123026857437,121.51897095347456
香天下(大华店),真华路950号1层234、204-206,宝山区,上海市,餐饮服务;中餐厅;火锅店,31.274254309939582,121.4065659441282
老北京热气涮羊肉(淞桥东路店),淞桥东路112号(近淞滨路),宝山区,上海市,餐饮服务;中餐厅;火锅店,31.373043413622998,121.48970956128862
怡乡春竹(宝杨路店),宝杨路1949号(近同济路),宝山区,上海市,餐饮服务;中餐厅;火锅店,31.39457305223437,121.46812844106955
洞子张火锅(宝山店),淞兴西路248号1号楼(近1919创意码头),宝山区,上海市,餐饮服务;中餐厅;火锅店,31.36982715727742,121.48422529914039
争鲜回转火锅,牡丹江路1255号安信商业广场F区2层215,宝山区,上海市,餐饮服务;中餐厅;火锅店,31.396458773675754,121.48409255100727
赵家院子火锅,张庙街道通河路508号2层,宝山区,上海市,餐饮服务;中餐厅;火锅店,31.33801968522435,121.4406993844365
大唐人家(大华店),大华三路73号,宝山区,上海市,餐饮服务;中餐厅;火锅店,31.277480813882242,121.41491856720043
金辣椒(盘古路店),盘古路345-355号,宝山区,上海市,餐饮服务;中餐厅;火锅店,31.411006087054787,121.48043948030603
老北京热气涮羊肉(淞良路店),淞良路304号,宝山区,上海市,餐饮服务;中餐厅;火锅店,31.34421631342492,121.48377590174282
老北京热气涮羊肉(共富路店),共富路15号(近共富新村地铁站),宝山区,上海市,餐饮服务;中餐厅;火锅店,31.35271953386884,121.42895924214196
山城轩火锅,月浦镇四元路36号(宝钢教育培训中心西侧),宝山区,上海市,餐饮服务;中餐厅;火锅店,31.414882377159607,121.4292723382969
德庄火锅(友谊路店),友谊路2578号(友谊路与杨泰路交叉口丽都广场),宝山区,上海市,餐饮服务;中餐厅;火锅店,31.38693251249294,121.43022439963107
左庭右院(万达广场),一二八纪念路878号万达广场4层4007,宝山区,上海市,餐饮服务;中餐厅;火锅店,31.32520584017363,121.44308492910214
豆捞坊(宝乐汇),牡丹江路1569号宝乐汇5F层F515,宝山区,上海市,餐饮服务;中餐厅;火锅店,31.401491996054805,121.48054968054625
大渝火锅(巴黎春天),大场镇真华路888号巴黎春天B1楼,宝山区,上海市,餐饮服务;中餐厅;火锅店,31.272381601419976,121.40775472059187
旺潮之牛潮汕牛肉火锅,张庙街道通河路549号红太阳商业广场533弄101B,宝山区,上海市,餐饮服务;中餐厅;火锅店,31.339172577400266,121.44085964124226
玉林串串香(万达广场),一二八纪念路878号万达广场F3层351,宝山区,上海市,餐饮服务;中餐厅;四川菜(川菜)|餐饮服务;中餐厅;火锅店,31.32554579065271,121.44363418595991
红魔(万达广场),一二八纪念路878号万达广场F4层4011,宝山区,上海市,餐饮服务;中餐厅;火锅店,31.326138626766127,121.44315100220825
小辉哥火锅(大华虎城店),大华路352号大华虎城嘉年华F2层,宝山区,上海市,餐饮服务;中餐厅;火锅店,31.27226226425677,121.40904047893453
豆捞坊(万达广场),一二八纪念路878号万达广场F3层3015A,宝山区,上海市,餐饮服务;中餐厅;火锅店,31.326162719626957,121.44320312176505
蜀都府火锅,铁峰路1990号,宝山区,上海市,餐饮服务;中餐厅;火锅店,31.3973242481853,121.44934710559184
就九桌象鼻火锅,共康东路113-115号,宝山区,上海市,餐饮服务;中餐厅;火锅店,31.32540588924335,121.45728113464357
辣府火锅(牡丹江路店),牡丹江路298号(农工商超市一楼),宝山区,上海市,餐饮服务;中餐厅;火锅店,31.383464215977853,121.491380672512
吴老幺火锅(大华店),真金路1041号,宝山区,上海市,餐饮服务;中餐厅;火锅店,31.28548823674758,121.40161621881639
捞味火锅(共和新路),共和新路5000弄绿地·新都会3号楼2层,宝山区,上海市,餐饮服务;中餐厅;火锅店,31.324222702865764,121.43908004193358
地锅传奇(水产西路店),水产西路763号,宝山区,上海市,餐饮服务;中餐厅;火锅店,31.357963245137515,121.41149366392558
老成都火锅(长江南路店),"长江南路579-4号老成都火锅,巫山烤鱼",宝山区,上海市,餐饮服务;中餐厅;火锅店,31.33913075050905,121.47676395172931
小辉哥火锅(陆翔路店),陆翔路111号8号楼201-206号(正大缤纷城2层),宝山区,上海市,餐饮服务;中餐厅;火锅店,31.346640672599754,121.3674032696901
小郡肝串串香,新沪路1210号(大华三路3号口),宝山区,上海市,餐饮服务;中餐厅;火锅店,31.278293261325388,121.41591244659136
川人火锅(德都路店),德都路372号(近四元路),宝山区,上海市,餐饮服务;中餐厅;火锅店,31.416855759143687,121.41898661166836
玖歌川西坝子火锅,杨行镇红林路528弄37号红林农贸市场2楼,宝山区,上海市,餐饮服务;中餐厅;火锅店,31.364934569906367,121.41520619907539
双桥牛府潮汕鲜牛肉火锅,长江国际商业购物中心2楼,宝山区,上海市,餐饮服务;中餐厅;火锅店,31.32255637916352,121.46762201065745
大渝火锅(宝山店),顾村镇顾北路688号东方帕提欧小区对面,宝山区,上海市,餐饮服务;中餐厅;火锅店,31.35233149271168,121.38152127281805
金三峡老火锅(罗泾店),罗泾镇陈镇路258号,宝山区,上海市,餐饮服务;中餐厅;火锅店,31.483862137614654,121.33672427878822
撮一顿黄手艺火锅冒菜,湄浦路280号(近克东路),宝山区,上海市,餐饮服务;中餐厅;火锅店,31.40714285584095,121.45649379805491
狠牛火锅料理(万达广场),一二八纪念路878号万达广场F1层,宝山区,上海市,餐饮服务;中餐厅;火锅店,31.32527254639853,121.4434587974711
豫香斋烧烤火锅,祥和路3493弄78号101-102,宝山区,上海市,餐饮服务;中餐厅;火锅店|餐饮服务;中餐厅;清真菜馆,31.35214098070393,121.39862696219274
四川香天下火锅(吴淞店),淞宝路155弄星月国际广场C区22号3层,宝山区,上海市,餐饮服务;中餐厅;火锅店,31.382584372960924,121.49702007478429
羊蝎子,水产西路102号华馨苑旁,宝山区,上海市,餐饮服务;中餐厅;火锅店,31.362968688760233,121.42635519319056
小天椒鱼头馆(德都路店),月浦德都路190号,宝山区,上海市,餐饮服务;中餐厅;火锅店,31.411452747000325,121.42057797717476
重庆德庄火锅(万达广场),一二八纪念路878号万达广场F4层,宝山区,上海市,餐饮服务;中餐厅;火锅店,31.325284400587165,121.44338662722086
重庆刘一手火锅(菊盛路店),顾村镇菊盛路818号,宝山区,上海市,餐饮服务;中餐厅;火锅店,31.3617049150918,121.36472380905545
海底捞火锅(宝山经纬汇店),经地路99弄经纬汇5号楼4层海底捞,宝山区,上海市,餐饮服务;中餐厅;火锅店,31.325874502069464,121.39402651573756
亿东郊钢管厂小郡肝串串香,殷高西路711号高境文化广场1楼,宝山区,上海市,餐饮服务;中餐厅;火锅店,31.321821622095033,121.46459046567612
狠牛火锅料理(招商花园店),水产路2199弄175-176号,宝山区,上海市,餐饮服务;中餐厅;火锅店,31.37049995677817,121.44235330198583
老北京碳锅涮羊肉(吉浦店),吉浦路521-3号,宝山区,上海市,餐饮服务;中餐厅;火锅店,31.314990935119035,121.48581963095594
小肥羊火锅(殷高西路店),逸仙路1328号新业坊8号楼2楼,宝山区,上海市,餐饮服务;中餐厅;火锅店,31.32067302498903,121.479751827623
龙窑砂锅串串香(松南店),淞发路939号上坤红街117-118室麦当劳边,宝山区,上海市,餐饮服务;中餐厅;火锅店,31.341886722077376,121.47462645025067
老北京涮羊肉,真金路1037号,宝山区,上海市,餐饮服务;中餐厅;火锅店,31.284963438563427,121.40153624713106
马记丸家,长江南路651号,宝山区,上海市,餐饮服务;中餐厅;火锅店,31.340823689470184,121.47624904837484
庭记火锅,君子兰路密山路5号,宝山区,上海市,餐饮服务;中餐厅;火锅店,31.40737979734996,121.48512828276385
麻九香至尊火锅(殷高西路店),殷高西路588号靠高跃路,宝山区,上海市,餐饮服务;中餐厅;火锅店,31.322101269768925,121.46826211063674
左庭右院(宝乐汇店),牡丹江路1569号宝乐汇5F层F519,宝山区,上海市,餐饮服务;中餐厅;火锅店,31.40085062221952,121.48104747275218
小三宝火锅爱上老城区炭火蛙锅,淞南镇长逸路258号海伦精致生活广场2层,宝山区,上海市,餐饮服务;中餐厅;火锅店,31.33985024992912,121.4869625748543
一品茗潮汕牛肉火锅(顾村店),顾村电台路557号,宝山区,上海市,餐饮服务;中餐厅;火锅店,31.357010475034247,121.38777286655268
好骨气养生骨头火锅(大华店),大华路518号霓虹儿童广场1-2楼,宝山区,上海市,餐饮服务;中餐厅;火锅店,31.272613499706,121.4097769164398
狠牛火锅料理(顾北路店),顾村公园顾北路524-526号,宝山区,上海市,餐饮服务;中餐厅;火锅店,31.352943207000223,121.38493080747236
小辉哥火锅(万达广场),一二八纪念路878号万达广场F4层4005A,宝山区,上海市,餐饮服务;中餐厅;火锅店,31.3251924780757,121.4423782948697
槐店王婆(宝山宝龙城市广场),杨南路2211号宝山宝龙城市广场F3层,宝山区,上海市,餐饮服务;中餐厅;火锅店,31.390317036653535,121.3541559337863
海底捞火锅(红太阳商业广场店),通河路533弄3号(红太阳商业广场2楼),宝山区,上海市,餐饮服务;中餐厅;火锅店,31.339593163050615,121.44125148239729
哞哞(万达广场),一二八纪念路878号万达广场F3层340,宝山区,上海市,餐饮服务;中餐厅;火锅店,31.325824931103845,121.44375745224684
华虾乡·虾王魔都旗舰店,华灵路1910号,宝山区,上海市,餐饮服务;中餐厅;火锅店|餐饮服务;中餐厅;海鲜酒楼,31.281437632199694,121.3993662081723
八角楼(湄浦路),湄浦路179号宝地绿洲城广场105室,宝山区,上海市,餐饮服务;中餐厅;火锅店,31.408737515944775,121.46020654383273
吴老幺老火锅(顾村店),顾村镇宝菊路185弄3号,宝山区,上海市,餐饮服务;中餐厅;火锅店,31.34852145278412,121.36083901294069
铜锣湾1锅港式打边炉,殷高西路638号111室,宝山区,上海市,餐饮服务;中餐厅;火锅店,31.32121722967726,121.46587756558516
签年大计小郡肝串串香,水产路761号,宝山区,上海市,餐饮服务;中餐厅;火锅店,31.385965709091245,121.48676192142862
老侯家辣卤冒菜(上海大学店),上大路680-2、682-3号1层,宝山区,上海市,餐饮服务;中餐厅;火锅店,31.312952313097934,121.39004774083834
嗨锅(宝山万达店),一二八纪念路1000弄万达金街1楼126号(近共和新路),宝山区,上海市,餐饮服务;中餐厅;火锅店,31.32520660984858,121.44398604636706
乔老爷老北京铜炉涮锅(万达广场),一二八纪念路878号万达广场F3层325,宝山区,上海市,餐饮服务;中餐厅;火锅店,31.324951317089198,121.44328140981952
老北京热气涮羊肉(呼玛店),呼玛路628号,宝山区,上海市,餐饮服务;中餐厅;火锅店,31.340380773680632,121.44224567182602
