name,address,adname,pname,type,lat,lon
城隍庙(公交站),932路,黄浦区,上海市,交通设施服务;公交车站;公交车站相关,31.231351802577716,121.48870001007684
九江路黄河路(公交站),20路;330路;37路,黄浦区,上海市,交通设施服务;公交车站;公交车站相关,31.235460044691948,121.46851937679911
人民广场(公交站),123路;145路;312路;46路;49路;上川专线,黄浦区,上海市,交通设施服务;公交车站;公交车站相关,31.230453957397373,121.47238548414099
黄陂北路(公交站),71路;71路区间,黄浦区,上海市,交通设施服务;公交车站;公交车站相关,31.22842015008969,121.46956938696101
上海博物馆(公交站),都市观光旅游1线;都市观光旅游2线,黄浦区,上海市,交通设施服务;公交车站;公交车站相关,31.228699819413226,121.4716812982946
西藏中路(公交站),71路,黄浦区,上海市,交通设施服务;公交车站;公交车站相关,31.2310513348736,121.4744061972206
世纪广场(公交站),都市观光旅游1线,黄浦区,上海市,交通设施服务;公交车站;公交车站相关,31.23778597622799,121.47360191864153
新闸路温州路(公交站),210路,黄浦区,上海市,交通设施服务;公交车站;公交车站相关,31.240430516656925,121.46504488416704
南京路步行街(公交站),都市观光旅游1线,黄浦区,上海市,交通设施服务;公交车站;公交车站相关,31.237422970521806,121.47602112027691
东新桥(公交站),14路,黄浦区,上海市,交通设施服务;公交车站;公交车站相关,31.23429193090649,121.47760580178124
成都北路(公交站),71路;71路区间,黄浦区,上海市,交通设施服务;公交车站;公交车站相关,31.225945738812612,121.46333179691356
长乐路淡水路(公交站),上川专线,黄浦区,上海市,交通设施服务;公交车站;公交车站相关,31.22476578321986,121.46732043760456
淡水路长乐路(公交站),(停运)沪塘专线(大站车);沪商高速专线;沪塘专线,黄浦区,上海市,交通设施服务;公交车站;公交车站相关,31.224665548012204,121.4675883042242
新闸路地铁站(公交站),136路;19路;316路/316路(夜宵线);64路,黄浦区,上海市,交通设施服务;公交车站;公交车站相关,31.241242950544848,121.46226621219837
柳林路寿宁路(公交站),南申专线,黄浦区,上海市,交通设施服务;公交车站;公交车站相关,31.22538902309569,121.47583852717396
小北门(公交站),11路内圈;11路外圈;135路;220路;304路;736路;911路;930路,黄浦区,上海市,交通设施服务;公交车站;公交车站相关,31.22755634227234,121.47840311764513
新天地太平湖(公交站),都市观光旅游1线,黄浦区,上海市,交通设施服务;公交车站;公交车站相关,31.222988193569147,121.47084803785326
马当路兴业路(公交站),146路内圈;146路外圈;805路/805路旅游观光环线;大桥一线高峰车,黄浦区,上海市,交通设施服务;公交车站;公交车站相关,31.22243026863493,121.46968427418308
吉安路湖滨路(公交站),109路;932路,黄浦区,上海市,交通设施服务;公交车站;公交车站相关,31.223420497414025,121.47497376450168
老北门(公交站),11路内圈;17路;26路;304路;320路;736路;920路;926路;930路;932路;969路;上川专线;隧道八线,黄浦区,上海市,交通设施服务;公交车站;公交车站相关,31.230408870577524,121.48180167551521
河南中路(公交站),71路,黄浦区,上海市,交通设施服务;公交车站;公交车站相关,31.23316154214356,121.48314916722127
自忠路东台路(公交站),17路,黄浦区,上海市,交通设施服务;公交车站;公交车站相关,31.222175186716846,121.47606858370568
老西门(公交站),11路内圈;11路外圈;135路;220路;304路;318路;324路;451路;537路;736路;782路;789路;911路;920路;930路,黄浦区,上海市,交通设施服务;公交车站;公交车站相关,31.222540184260623,121.4796127244548
外滩(汉口路)(公交站),申城观光1号线,黄浦区,上海市,交通设施服务;公交车站;公交车站相关,31.239256260004005,121.48569865269634
延安东路外滩(公交站),71路,黄浦区,上海市,交通设施服务;公交车站;公交车站相关,31.23489138994066,121.48641857945447
外滩海关大楼(公交站),都市观光旅游1线;都市观光旅游5号线,黄浦区,上海市,交通设施服务;公交车站;公交车站相关,31.239291220312683,121.48569062124201
新北门(公交站),11路内圈;11路外圈;26路;304路;64路;736路;805路/805路旅游观光环线;920路;926路;930路,黄浦区,上海市,交通设施服务;公交车站;公交车站相关,31.231479713260608,121.48734516584497
合肥路济南路(公交站),大桥一线高峰车,黄浦区,上海市,交通设施服务;公交车站;公交车站相关,31.218148177638,121.47574683388066
肇周路合肥路(公交站),318路,黄浦区,上海市,交通设施服务;公交车站;公交车站相关,31.218143268970138,121.47613013728864
城隍庙·豫园(公交站),都市观光旅游3号线;都市观光旅游5号线,黄浦区,上海市,交通设施服务;公交车站;公交车站相关,31.227239730084847,121.4873605810194
城隍庙豫园(公交站),都市观光旅游1线,黄浦区,上海市,交通设施服务;公交车站;公交车站相关,31.22725304287284,121.48746796240324
中华路盐城路(公交站),11路外圈,黄浦区,上海市,交通设施服务;公交车站;公交车站相关,31.219337238415182,121.48151963244915
金陵东路码头(公交站),都市观光旅游3号线;都市观光旅游5号线,黄浦区,上海市,交通设施服务;公交车站;公交车站相关,31.2333384600496,121.48922873149243
中华路尚文路(公交站),11路内圈;11路外圈;304路;306路;324路;66路;66路区间;920路;929路,黄浦区,上海市,交通设施服务;公交车站;公交车站相关,31.217165224154993,121.48389314781006
文化广场(公交站),786路,黄浦区,上海市,交通设施服务;公交车站;公交车站相关,31.213404202168412,121.45672819302328
十六铺(公交站),305路;55路;65路;736路;866路;868路,黄浦区,上海市,交通设施服务;公交车站;公交车站相关,31.22945486123364,121.4937773886724
斜桥(公交站),18路;218路;23路;303路;318路;43路;730路;781路;955路;大桥一线高峰车;徐川专线,黄浦区,上海市,交通设施服务;公交车站;公交车站相关,31.213485468167104,121.47926127952717
瑞金医院(公交站),104路;146路内圈;301路;41路;864路;955路;96路,黄浦区,上海市,交通设施服务;公交车站;公交车站相关,31.211603716908147,121.46184046014116
小东门(公交站),11路内圈;11路外圈;304路;64路;736路;920路;930路,黄浦区,上海市,交通设施服务;公交车站;公交车站相关,31.226559764963604,121.49329489785852
大南门(公交站),11路内圈;11路外圈;304路;324路;920路,黄浦区,上海市,交通设施服务;公交车站;公交车站相关,31.217207889567245,121.48952114681813
大东门(公交站),11路内圈;11路外圈;304路;324路;64路;920路;930路,黄浦区,上海市,交通设施服务;公交车站;公交车站相关,31.223786942142056,121.49458878977048
蒙自路丽园路(公交站),109路;146路外圈,黄浦区,上海市,交通设施服务;公交车站;公交车站相关,31.20902098159921,121.47270136763872
局门路斜土路(公交站),109路;146路内圈,黄浦区,上海市,交通设施服务;公交车站;公交车站相关,31.20830659467989,121.47634571065099
打浦桥(公交站),146路内圈;146路外圈;17路;218路;303路;41路;43路;786路;955路;96路;985路;徐川专线;隧道一线;隧道一线区间;隧道夜宵一线,黄浦区,上海市,交通设施服务;公交车站;公交车站相关,31.207420320924104,121.46439668861726
小南门(公交站),11路内圈;11路外圈;304路;324路;920路,黄浦区,上海市,交通设施服务;公交车站;公交车站相关,31.21793609398081,121.49371714769292
鲁班路斜土路(公交站),36路;780路;781路;869路;932路;933路;95路;974路;隧道八线,黄浦区,上海市,交通设施服务;公交车站;公交车站相关,31.20681423910269,121.47023641426898
斜土路蒙自路(公交站),89路;96路;974路,黄浦区,上海市,交通设施服务;公交车站;公交车站相关,31.206795854361047,121.47476849054867
打浦路斜土路(公交站),146路内圈;17路;96路;浦西滨江1路;隧道一线;隧道一线区间;隧道夜宵一线,黄浦区,上海市,交通设施服务;公交车站;公交车站相关,31.20579988396184,121.46583534143036
复兴东路码头(公交站),都市观光旅游3号线,黄浦区,上海市,交通设施服务;公交车站;公交车站相关,31.224585848310895,121.49968909126882
斜土路鲁班路(公交站),89路;96路;974路,黄浦区,上海市,交通设施服务;公交车站;公交车站相关,31.20546093803501,121.47242575447453
蒙自路斜土路(公交站),109路;146路外圈,黄浦区,上海市,交通设施服务;公交车站;公交车站相关,31.20568903137116,121.47428595859779
局门路汝南街(公交站),146路内圈,黄浦区,上海市,交通设施服务;公交车站;公交车站相关,31.205380380978326,121.47752499077814
国货路海潮路(公交站),89路,黄浦区,上海市,交通设施服务;公交车站;公交车站相关,31.211149295271824,121.4900264697565
市九医院(公交站),18路;23路;318路,黄浦区,上海市,交通设施服务;公交车站;公交车站相关,31.206090605470493,121.4801499895799
斜土路打浦路(公交站),17路;733路;89路;932路;96路,黄浦区,上海市,交通设施服务;公交车站;公交车站相关,31.203644225587283,121.46556768184007
蓬莱公园(公交站),306路;66路;66路区间;929路,黄浦区,上海市,交通设施服务;公交车站;公交车站相关,31.208355759545398,121.48838885110551
鲁班路瞿溪路(公交站),17路;36路;733路;869路;933路;95路;浦西滨江1路;隧道八线,黄浦区,上海市,交通设施服务;公交车站;公交车站相关,31.20211997937517,121.47149294817555
打浦路瞿溪路(公交站),146路内圈;146路外圈;17路;96路;浦西滨江1路;隧道一线;隧道一线区间;隧道夜宵一线,黄浦区,上海市,交通设施服务;公交车站;公交车站相关,31.20121490452639,121.46725925896799
瞿溪路鲁班路(公交站),浦西滨江1路,黄浦区,上海市,交通设施服务;公交车站;公交车站相关,31.201106058351428,121.47097934114935
南浦大桥(公交站),109路;144路;303路;305路;324路;327路;43路;45路;55路;55路大站车(早高峰);55路大站车(晚高峰);64路;65路;869路;89路,黄浦区,上海市,交通设施服务;公交车站;公交车站相关,31.210648397701355,121.4969925596922
卢浦大桥(公交站),146路内圈;146路外圈;17路;205路;36路;733路;95路;隧道八线,黄浦区,上海市,交通设施服务;公交车站;公交车站相关,31.195719178655313,121.47473532393455
苗江路望达路(公交站),浦西滨江1路,黄浦区,上海市,交通设施服务;公交车站;公交车站相关,31.20158597961537,121.49371853709674
南京西路黄河路(公交站),20路;330路;37路;805路/805路旅游观光环线,黄浦区,上海市,交通设施服务;公交车站;公交车站相关,31.23505563018757,121.46718010699094
杜莎夫人蜡像馆(公交站),都市观光旅游1线,黄浦区,上海市,交通设施服务;公交车站;公交车站相关,31.236358979586072,121.46901691083524
城市规划展示馆(公交站),都市观光旅游1线;都市观光旅游2线,黄浦区,上海市,交通设施服务;公交车站;公交车站相关,31.233107437243383,121.47155851509721
黄陂北路武胜路(公交站),109路;324路,黄浦区,上海市,交通设施服务;公交车站;公交车站相关,31.23012535648825,121.46697387101598
威海路黄陂北路(公交站),109路;49路,黄浦区,上海市,交通设施服务;公交车站;公交车站相关,31.229902088999367,121.46570386049243
武胜路黄陂北路(公交站),23路;49路,黄浦区,上海市,交通设施服务;公交车站;公交车站相关,31.229562501988617,121.46617839002
武胜路西藏中路(公交站),隧道六线,黄浦区,上海市,交通设施服务;公交车站;公交车站相关,31.23073511993063,121.47249081045118
九江路浙江中路(公交站),167路;20路;330路;37路;49路;805路/805路旅游观光环线,黄浦区,上海市,交通设施服务;公交车站;公交车站相关,31.236393109258227,121.47377863043948
延安东路普安路(公交站),23路;311路;42路;789路;上川专线,黄浦区,上海市,交通设施服务;公交车站;公交车站相关,31.22868917610428,121.47108432798531
长沙路北京西路(公交站),15路;19路;316路/316路(夜宵线);64路,黄浦区,上海市,交通设施服务;公交车站;公交车站相关,31.23957890580232,121.46693493638799
温州路北京西路(公交站),136路,黄浦区,上海市,交通设施服务;公交车站;公交车站相关,31.239264374879536,121.4655495709628
普安路延安东路(公交站),455路;775路;782路;783路;934路;沪朱高速快线,黄浦区,上海市,交通设施服务;公交车站;公交车站相关,31.228435345316203,121.47182680263708
新闸路西藏中路(公交站),19路;316路/316路(夜宵线);64路,黄浦区,上海市,交通设施服务;公交车站;公交车站相关,31.240057952705996,121.46703421210813
福州路浙江中路(公交站),980路;上川专线;隧道三线;隧道六线;隧道夜宵线,黄浦区,上海市,交通设施服务;公交车站;公交车站相关,31.234954929291785,121.47560792721912
湖北路南京东路(公交站),14路,黄浦区,上海市,交通设施服务;公交车站;公交车站相关,31.236567344428906,121.47530977857558
天津路福建中路(公交站),330路;37路,黄浦区,上海市,交通设施服务;公交车站;公交车站相关,31.23868945662238,121.47427610630805
金陵中路普安路(公交站),324路,黄浦区,上海市,交通设施服务;公交车站;公交车站相关,31.22699606126762,121.47184297932797
金陵中路龙门路(公交站),108路;108路区间;23路;455路;775路;782路;783路;789路,黄浦区,上海市,交通设施服务;公交车站;公交车站相关,31.227990865796247,121.47373319619412
龙门路淮海中路(公交站),42路,黄浦区,上海市,交通设施服务;公交车站;公交车站相关,31.22750397450834,121.4740472925569
淮海中路商业街(公交站),都市观光旅游1线,黄浦区,上海市,交通设施服务;公交车站;公交车站相关,31.226186713696936,121.47266176856535
淮海中路嵩山路(公交站),167路;26路;320路;42路;805路/805路旅游观光环线;911路;920路;926路;932路,黄浦区,上海市,交通设施服务;公交车站;公交车站相关,31.226167594119698,121.47261561648035
福州路福建中路(公交站),123路;167路;49路,黄浦区,上海市,交通设施服务;公交车站;公交车站相关,31.23576815293421,121.47791975388537
马当路淮海中路(公交站),大桥一线高峰车,黄浦区,上海市,交通设施服务;公交车站;公交车站相关,31.224300473219294,121.46897982323532
成都北路新闸路(公交站),36路;869路;933路;95路,黄浦区,上海市,交通设施服务;公交车站;公交车站相关,31.23950259643151,121.46023121269322
九江路福建中路(公交站),20路,黄浦区,上海市,交通设施服务;公交车站;公交车站相关,31.237746236053326,121.47756737511928
淡水路金陵东路(公交站),沪商高速专线,黄浦区,上海市,交通设施服务;公交车站;公交车站相关,31.224410950214267,121.4676936640495
嵩山路淮海中路(公交站),109路;781路;932路;隧道八线,黄浦区,上海市,交通设施服务;公交车站;公交车站相关,31.224811198844552,121.47116091217423
九江路山东中路(公交站),805路/805路旅游观光环线,黄浦区,上海市,交通设施服务;公交车站;公交车站相关,31.238183111035394,121.4789842159614
太仓路重庆南路(公交站),781路;932路;隧道八线,黄浦区,上海市,交通设施服务;公交车站;公交车站相关,31.222930139316716,121.46898796697513
新天地(马当路)(公交站),申城观光1号线,黄浦区,上海市,交通设施服务;公交车站;公交车站相关,31.222373317364625,121.46969230524586
天津路河南中路(公交站),330路;37路,黄浦区,上海市,交通设施服务;公交车站;公交车站相关,31.240365086832213,121.47932019160065
一大会址新天地(公交站),都市观光旅游1线,黄浦区,上海市,交通设施服务;公交车站;公交车站相关,31.221854906128517,121.47054915280088
淮海中路思南路(公交站),146路内圈;146路外圈;167路;26路;320路;42路;911路;920路;926路;986路;986路(区间),黄浦区,上海市,交通设施服务;公交车站;公交车站相关,31.222112198899463,121.46281152459125
兴业路重庆南路(公交站),805路/805路旅游观光环线,黄浦区,上海市,交通设施服务;公交车站;公交车站相关,31.22124118439491,121.46796982291625
九江路江西中路(公交站),20路,黄浦区,上海市,交通设施服务;公交车站;公交车站相关,31.23897580155609,121.48209998993192
汉口路江西中路(公交站),49路,黄浦区,上海市,交通设施服务;公交车站;公交车站相关,31.238126875380722,121.48199268649984
汉口路四川中路(公交站),20路,黄浦区,上海市,交通设施服务;公交车站;公交车站相关,31.23843777024364,121.4833704965925
河南南路福佑路(公交站),306路;66路;66路区间;929路;969路;980路;申城观光1号线;申城观光2号线,黄浦区,上海市,交通设施服务;公交车站;公交车站相关,31.228637504523732,121.48310339141204
济南路复兴中路(公交站),17路,黄浦区,上海市,交通设施服务;公交车站;公交车站相关,31.22030600926079,121.47498908226272
复兴中路顺昌路(公交站),304路,黄浦区,上海市,交通设施服务;公交车站;公交车站相关,31.219636385239912,121.47430081755942
复兴中路吉安路(公交站),24路,黄浦区,上海市,交通设施服务;公交车站;公交车站相关,31.220441602269286,121.47697983965652
四川中路香港路(公交站),19路;21路;220路,黄浦区,上海市,交通设施服务;公交车站;公交车站相关,31.24338855068303,121.48201531742501
顺昌路复兴中路(公交站),109路;17路,黄浦区,上海市,交通设施服务;公交车站;公交车站相关,31.218874798509155,121.47396374909962
长乐路陕西南路(公交站),26路,黄浦区,上海市,交通设施服务;公交车站;公交车站相关,31.2224264107135,121.45483003400432
城隍庙(人民路)(公交站),申城观光1号线,黄浦区,上海市,交通设施服务;公交车站;公交车站相关,31.231479713260608,121.48734516584497
外滩·海关大楼(公交站),都市观光旅游3号线,黄浦区,上海市,交通设施服务;公交车站;公交车站相关,31.239445105622504,121.48567555472616
豫园(复兴东路)(公交站),申城观光1号线;申城观光2号线,黄浦区,上海市,交通设施服务;公交车站;公交车站相关,31.224723517477553,121.48486493621581
外滩(南京东路)(公交站),申城观光1号线;申城观光2号线,黄浦区,上海市,交通设施服务;公交车站;公交车站相关,31.2417201154329,121.48569041388984
外滩(北京东路)(公交站),申城观光1号线,黄浦区,上海市,交通设施服务;公交车站;公交车站相关,31.24191586930855,121.48563720857638
马当路复兴中路(公交站),146路内圈;146路外圈;大桥一线高峰车,黄浦区,上海市,交通设施服务;公交车站;公交车站相关,31.21725835660911,121.4706488734289
复兴东路老西门(公交站),451路,黄浦区,上海市,交通设施服务;公交车站;公交车站相关,31.222330395301956,121.48239945692228
老西门(肇周路)(公交站),18路;318路;大桥一线高峰车,黄浦区,上海市,交通设施服务;公交车站;公交车站相关,31.21915651351066,121.47848009920695
外滩·外白渡桥(公交站),都市观光旅游1线;都市观光旅游3号线;都市观光旅游5号线,黄浦区,上海市,交通设施服务;公交车站;公交车站相关,31.24191586930855,121.48563720857638
顺昌路建国东路(公交站),17路,黄浦区,上海市,交通设施服务;公交车站;公交车站相关,31.21631463053197,121.47453789995532
马当路建国东路(公交站),146路内圈;146路外圈,黄浦区,上海市,交通设施服务;公交车站;公交车站相关,31.21554807658774,121.47097810225935
上海十六铺枢纽(公交站),上海旅游专线,黄浦区,上海市,交通设施服务;公交车站;公交车站相关,31.231110757906787,121.49032384162561
建国东路肇周路(公交站),24路;304路,黄浦区,上海市,交通设施服务;公交车站;公交车站相关,31.215532121566604,121.47564069689778
河南南路文庙路(公交站),324路;64路;66路;66路区间,黄浦区,上海市,交通设施服务;公交车站;公交车站相关,31.222209047979312,121.48633536185372
人民路新开河路(公交站),11路内圈;11路外圈;304路;64路,黄浦区,上海市,交通设施服务;公交车站;公交车站相关,31.23079295764598,121.49067613154465
复兴东路光启路(公交站),24路;64路;715路,黄浦区,上海市,交通设施服务;公交车站;公交车站相关,31.223882243729015,121.48868559284143
顺昌路徐家汇路(公交站),109路,黄浦区,上海市,交通设施服务;公交车站;公交车站相关,31.213275856359154,121.47516628184205
河南南路蓬莱路(公交站),306路;64路;66路;66路区间;929路,黄浦区,上海市,交通设施服务;公交车站;公交车站相关,31.219254239387208,121.4876141627856
陕西南路永嘉路(公交站),104路;146路外圈;24路;301路;304路;41路;864路;955路,黄浦区,上海市,交通设施服务;公交车站;公交车站相关,31.21333925256097,121.45673622164773
大兴街陆家浜路(公交站),306路;66路;66路区间;929路,黄浦区,上海市,交通设施服务;公交车站;公交车站相关,31.215254692346292,121.48442217677258
陆家浜路大兴街(公交站),218路;303路;43路;730路;782路;915路;955路;985路;大桥一线高峰车,黄浦区,上海市,交通设施服务;公交车站;公交车站相关,31.21415479664857,121.48393956749798
中山南路东门路(公交站),866路,黄浦区,上海市,交通设施服务;公交车站;公交车站相关,31.226892399779743,121.49622742915895
鲁班路徐家汇路(公交站),932路,黄浦区,上海市,交通设施服务;公交车站;公交车站相关,31.208751902245627,121.46898918451663
制造局路斜土路(公交站),18路;23路;318路,黄浦区,上海市,交通设施服务;公交车站;公交车站相关,31.209887727200226,121.47979041846622
西藏南路斜土路(公交站),18路;23路;318路;454路;715路;969路,黄浦区,上海市,交通设施服务;公交车站;公交车站相关,31.210369465973464,121.48286811935208
斜土路制造局路(公交站),89路;96路;974路,黄浦区,上海市,交通设施服务;公交车站;公交车站相关,31.20838176233056,121.47851212809442
陆家浜路跨龙路(公交站),303路;64路;730路;782路;955路;985路;南新专线;大桥一线高峰车;徐川专线,黄浦区,上海市,交通设施服务;公交车站;公交车站相关,31.214773433700692,121.49065441254227
豆市街复兴东路(公交站),24路;715路;866路,黄浦区,上海市,交通设施服务;公交车站;公交车站相关,31.22339605519359,121.49756755296947
白渡路中山南路(公交站),930路,黄浦区,上海市,交通设施服务;公交车站;公交车站相关,31.223053229416543,121.49890740728812
国货路南车站路(公交站),89路,黄浦区,上海市,交通设施服务;公交车站;公交车站相关,31.210922109058178,121.48791393889755
陆家浜路海潮路(公交站),43路;64路;89路,黄浦区,上海市,交通设施服务;公交车站;公交车站相关,31.213526721927416,121.49455955322331
西藏南路瞿溪路(公交站),18路;23路;318路;454路;715路;969路;96路;974路,黄浦区,上海市,交通设施服务;公交车站;公交车站相关,31.206277209018694,121.48380977995632
瑞金南路瞿溪路(公交站),205路;41路;781路,黄浦区,上海市,交通设施服务;公交车站;公交车站相关,31.201209109580358,121.46392274723017
中山南路多稼路(公交站),305路;324路;55路;65路;868路,黄浦区,上海市,交通设施服务;公交车站;公交车站相关,31.212699019436283,121.49919832946608
龙华东路蒙自路(公交站),浦西滨江1路,黄浦区,上海市,交通设施服务;公交车站;公交车站相关,31.197878164392634,121.4768663763066
苗江路半淞园路(公交站),浦西滨江1路,黄浦区,上海市,交通设施服务;公交车站;公交车站相关,31.205029011356157,121.49629050598729
龙华东路富润路(公交站),146路外圈;17路,黄浦区,上海市,交通设施服务;公交车站;公交车站相关,31.196102549433917,121.47062761261255
龙华东路苗江路(公交站),浦西滨江1路,黄浦区,上海市,交通设施服务;公交车站;公交车站相关,31.198878283686295,121.48768514555351
苗江路龙华东路(公交站),浦西滨江1路,黄浦区,上海市,交通设施服务;公交车站;公交车站相关,31.19886559815674,121.48913231208518
江滨路日晖东路(公交站),浦西滨江1路,黄浦区,上海市,交通设施服务;公交车站;公交车站相关,31.193547558318734,121.4668395759799
南京西路西藏中路(公交站),451路;454路,黄浦区,上海市,交通设施服务;公交车站;公交车站相关,31.235013526198337,121.46713396314442
南京路步行街西侧(公交站),都市观光旅游1线,黄浦区,上海市,交通设施服务;公交车站;公交车站相关,31.233495781653705,121.46621617250707
人民广场(福州路)(公交站),167路;18路;312路;318路;451路;49路;537路;930路;新川专线;隧道三线;隧道夜宵线,黄浦区,上海市,交通设施服务;公交车站;公交车站相关,31.234610288258423,121.47103064444197
人民广场(广东路)(公交站),108路;108路区间;167路;312路;318路;454路;537路;930路;980路;隧道三线;隧道夜宵线,黄浦区,上海市,交通设施服务;公交车站;公交车站相关,31.232775011026543,121.47243143846747
人民广场(武胜路)(公交站),112路;112路区间;952路;952路B线,黄浦区,上海市,交通设施服务;公交车站;公交车站相关,31.22919870461216,121.46990541654152
北京西路西藏中路(公交站),15路;21路;315路,黄浦区,上海市,交通设施服务;公交车站;公交车站相关,31.23836095289223,121.46636823763819
延安东路西藏中路(公交站),311路;324路;454路,黄浦区,上海市,交通设施服务;公交车站;公交车站相关,31.230199630891057,121.472585170332
西藏中路北京东路(公交站),108路;108路区间;18路;312路;318路;46路;537路;930路;952路,黄浦区,上海市,交通设施服务;公交车站;公交车站相关,31.23877462370306,121.46929259934856
北京西路成都北路(公交站),15路;21路;315路;324路,黄浦区,上海市,交通设施服务;公交车站;公交车站相关,31.23706805532824,121.46312420213428
延安东路浙江中路(公交站),01线;123路;311路;455路;805路/805路旅游观光环线;934路;新川专线;机场五线;机场守航夜宵线;隧道三线;隧道六线;隧道夜宵线,黄浦区,上海市,交通设施服务;公交车站;公交车站相关,31.2314001183368,121.47509549457752
延安东路重庆北路(公交站),311路,黄浦区,上海市,交通设施服务;公交车站;公交车站相关,31.227302082045252,121.46637721432627
成都北路延安东路(公交站),36路;869路;933路;952路B线;95路;974路;南新专线,黄浦区,上海市,交通设施服务;公交车站;公交车站相关,31.22801784850278,121.46336171139833
西藏南路宁海东路(公交站),318路;451路;454路;782路;783路;805路/805路旅游观光环线,黄浦区,上海市,交通设施服务;公交车站;公交车站相关,31.229181476389673,121.47485788080616
金陵中路黄陂南路(公交站),108路;108路区间;789路,黄浦区,上海市,交通设施服务;公交车站;公交车站相关,31.226828403694444,121.47121491767965
重庆北路延安东路(公交站),780路;上川专线,黄浦区,上海市,交通设施服务;公交车站;公交车站相关,31.226099063534967,121.46578042825749
福建中路南京东路(公交站),14路,黄浦区,上海市,交通设施服务;公交车站;公交车站相关,31.236187849015273,121.47683299375926
浙江中路北京东路(公交站),14路,黄浦区,上海市,交通设施服务;公交车站;公交车站相关,31.241139329050046,121.47212470366107
福建中路延安东路(公交站),980路;上川专线;隧道三线;隧道六线;隧道夜宵线,黄浦区,上海市,交通设施服务;公交车站;公交车站相关,31.233915688397218,121.47815773030715
福建中路北京东路(公交站),14路,黄浦区,上海市,交通设施服务;公交车站;公交车站相关,31.240153579696145,121.47491112320522
北京东路福建中路(公交站),19路;21路;316路/316路(夜宵线);64路,黄浦区,上海市,交通设施服务;公交车站;公交车站相关,31.240858670228054,121.47399196511614
淮海中路西藏南路(公交站),320路;805路/805路旅游观光环线;911路;920路;926路;932路;隧道八线,黄浦区,上海市,交通设施服务;公交车站;公交车站相关,31.22738398284772,121.47544803152213
淮海东路西藏南路(公交站),783路;920路;926路;932路;980路;上川专线;隧道八线,黄浦区,上海市,交通设施服务;公交车站;公交车站相关,31.228003875563388,121.47691798284362
黄陂南路淮海中路(公交站),109路,黄浦区,上海市,交通设施服务;公交车站;公交车站相关,31.223976739180785,121.47048776983513
西藏南路淮海东路(公交站),135路;17路;18路;23路;318路;324路;454路;537路;775路;781路;782路;789路;911路;930路;969路,黄浦区,上海市,交通设施服务;公交车站;公交车站相关,31.226466108303985,121.47639733691429
淮海东路云南南路(公交站),320路;911路;926路;930路;932路,黄浦区,上海市,交通设施服务;公交车站;公交车站相关,31.228819900774226,121.47880138320566
淮海东路浙江南路(公交站),783路,黄浦区,上海市,交通设施服务;公交车站;公交车站相关,31.228842066964052,121.47886259262155
重庆南路淮海中路(公交站),36路;869路;933路;95路;986路;986路(区间);隧道八线,黄浦区,上海市,交通设施服务;公交车站;公交车站相关,31.22268785638153,121.46698253604971
淮海中路重庆南路(公交站),146路内圈;146路外圈;320路;911路;920路;926路,黄浦区,上海市,交通设施服务;公交车站;公交车站相关,31.22294702583289,121.46482369095072
北京东路山东北路(公交站),14路;19路,黄浦区,上海市,交通设施服务;公交车站;公交车站相关,31.242000970531958,121.47745261834395
河南中路延安东路(公交站),17路;306路;66路;66路区间;805路/805路旅游观光环线;929路,黄浦区,上海市,交通设施服务;公交车站;公交车站相关,31.23573873881362,121.48157141634245
河南中路南京东路(公交站),17路;220路;306路;316路/316路(夜宵线);64路;66路;66路区间;805路/805路旅游观光环线;929路,黄浦区,上海市,交通设施服务;公交车站;公交车站相关,31.238270505932277,121.48085971681328
北京东路河南中路(公交站),19路,黄浦区,上海市,交通设施服务;公交车站;公交车站相关,31.242227557347274,121.47804162157466
瑞金一路延安中路(公交站),24路;304路,黄浦区,上海市,交通设施服务;公交车站;公交车站相关,31.224357523800528,121.45858664416248
南京路步行街东侧(公交站),都市观光旅游1线,黄浦区,上海市,交通设施服务;公交车站;公交车站相关,31.239842127384385,121.48131918555762
金陵东路江西南路(公交站),320路,黄浦区,上海市,交通设施服务;公交车站;公交车站相关,31.232439797913855,121.48346333399502
北京东路江西中路(公交站),19路;21路,黄浦区,上海市,交通设施服务;公交车站;公交车站相关,31.24249567009833,121.47985586602877
北京东路四川中路(公交站),220路;330路;37路,黄浦区,上海市,交通设施服务;公交车站;公交车站相关,31.24249411727093,121.48069879617951
瑞金一路淮海中路(公交站),104路;24路;301路;304路;41路;955路,黄浦区,上海市,交通设施服务;公交车站;公交车站相关,31.22218841057154,121.45893886610233
延安东路江西中路(公交站),145路;934路,黄浦区,上海市,交通设施服务;公交车站;公交车站相关,31.23410391203781,121.48444264568961
黄陂南路复兴中路(公交站),109路;932路,黄浦区,上海市,交通设施服务;公交车站;公交车站相关,31.219564216253254,121.4717202083883
复兴中路黄陂南路(公交站),17路;24路;304路,黄浦区,上海市,交通设施服务;公交车站;公交车站相关,31.219009667511276,121.47250887307541
淮海中路瑞金二路(公交站),146路内圈;920路;926路,黄浦区,上海市,交通设施服务;公交车站;公交车站相关,31.220405686811542,121.45870934413097
中山东一路广东路(公交站),123路;135路;307路;317路;576路;576路(区间)/576路调头车;868路;红房子医院定班车,黄浦区,上海市,交通设施服务;公交车站;公交车站相关,31.23673504303863,121.4865870213658
中山东一路汉口路(公交站),123路;135路;145路;305路;317路;33路;55路;55路大站车(早高峰);55路大站车(晚高峰);576路;576路区间;65路;934路;红房子医院定班车,黄浦区,上海市,交通设施服务;公交车站;公交车站相关,31.239233270488686,121.48569865465883
复兴中路重庆南路(公交站),17路;24路;304路,黄浦区,上海市,交通设施服务;公交车站;公交车站相关,31.217443970976788,121.46721974284618
老西门(复兴东路)(公交站),24路;715路;775路;969路,黄浦区,上海市,交通设施服务;公交车站;公交车站相关,31.222313359274136,121.48238440560355
河南南路复兴东路(公交站),306路;66路;66路区间;929路;969路;980路,黄浦区,上海市,交通设施服务;公交车站;公交车站相关,31.224698573607185,121.48487999158343
重庆南路复兴中路(公交站),36路;780路;781路;786路;869路;932路;933路;95路;974路;986路;986路(区间);大桥一线高峰车;隧道八线,黄浦区,上海市,交通设施服务;公交车站;公交车站相关,31.2167037155264,121.46624068965623
瑞金二路复兴中路(公交站),24路;301路;41路;986路;986路(区间),黄浦区,上海市,交通设施服务;公交车站;公交车站相关,31.21716530943842,121.46035550391093
老西门(西藏南路)(公交站),18路;23路;454路;715路;781路;782路;969路,黄浦区,上海市,交通设施服务;公交车站;公交车站相关,31.218783117611487,121.47966723354158
外滩浦江游船码头(公交站),都市观光旅游1线,黄浦区,上海市,交通设施服务;公交车站;公交车站相关,31.233301566845906,121.48925884232999
茂名南路淮海中路(公交站),146路内圈,黄浦区,上海市,交通设施服务;公交车站;公交车站相关,31.2174399014489,121.45740178678321
复兴中路瑞金二路(公交站),146路内圈;17路;304路;786路;864路;96路,黄浦区,上海市,交通设施服务;公交车站;公交车站相关,31.216550541372328,121.45952909502041
建国新路西藏南路(公交站),23路;24路;304路;红房子医院定班车,黄浦区,上海市,交通设施服务;公交车站;公交车站相关,31.21691413959102,121.47971355334754
建国东路重庆南路(公交站),17路;24路;304路;730路,黄浦区,上海市,交通设施服务;公交车站;公交车站相关,31.213424110797256,121.46952452437046
重庆南路建国中路(公交站),36路;786路;869路;932路;933路;95路;974路;986路;986路(区间);大桥一线高峰车;隧道八线,黄浦区,上海市,交通设施服务;公交车站;公交车站相关,31.21321213406883,121.46689908172587
复兴中路陕西南路(公交站),96路,黄浦区,上海市,交通设施服务;公交车站;公交车站相关,31.21556418865325,121.45673602974229
西藏南路陆家浜路(公交站),18路;23路;318路;454路;715路;782路;969路;大桥一线高峰车,黄浦区,上海市,交通设施服务;公交车站;公交车站相关,31.215422164710187,121.48119884587041
黄陂南路徐家汇路(公交站),109路;730路;932路,黄浦区,上海市,交通设施服务;公交车站;公交车站相关,31.21281045474392,121.47387998581227
老上海气象信号台(公交站),都市观光旅游3号线;都市观光旅游5号线,黄浦区,上海市,交通设施服务;公交车站;公交车站相关,31.2298003924612,121.49334078832858
徐家汇路黄陂南路(公交站),146路内圈;218路;303路;43路;730路;781路;955路;985路;南新专线;大桥一线高峰车,黄浦区,上海市,交通设施服务;公交车站;公交车站相关,31.21171673394435,121.47343558938172
建国中路瑞金二路(公交站),17路;24路;304路,黄浦区,上海市,交通设施服务;公交车站;公交车站相关,31.21101306279715,121.46342436385682
建国西路陕西南路(公交站),24路;304路,黄浦区,上海市,交通设施服务;公交车站;公交车站相关,31.20898442952241,121.45882566762451
南车站路陆家浜路(公交站),306路;66路;66路区间;929路,黄浦区,上海市,交通设施服务;公交车站;公交车站相关,31.21281426808218,121.48591466685771
中华路王家码头路(公交站),866路,黄浦区,上海市,交通设施服务;公交车站;公交车站相关,31.2190386021581,121.494061292866
斜土东路西藏南路(公交站),89路,黄浦区,上海市,交通设施服务;公交车站;公交车站相关,31.209932185293475,121.48406235956381
中山南路复兴东路(公交站),305路;324路;55路;55路大站车(早高峰);55路大站车(晚高峰);576路;576路(区间)/576路调头车;576路区间;65路;736路;866路;868路,黄浦区,上海市,交通设施服务;公交车站;公交车站相关,31.222639739587436,121.49968122741224
局门路中山南一路(公交站),109路;146路内圈,黄浦区,上海市,交通设施服务;公交车站;公交车站相关,31.203109771117095,121.47832091882083
蒙自路中山南一路(公交站),109路;146路外圈,黄浦区,上海市,交通设施服务;公交车站;公交车站相关,31.201997201113652,121.47583250305809
中山南路南车站路(公交站),109路;144路;18路;306路;318路;327路;45路;66路;66路区间;780路;869路;大桥六线,黄浦区,上海市,交通设施服务;公交车站;公交车站相关,31.20735352439653,121.49049446834874
中山南路董家渡路(公交站),305路;324路;55路;576路;576路(区间)/576路调头车;576路区间;65路;736路;868路,黄浦区,上海市,交通设施服务;公交车站;公交车站相关,31.217860084430587,121.50171795206028
中山南路西藏南路(公交站),109路;144路;18路;318路;327路;45路;780路;869路,黄浦区,上海市,交通设施服务;公交车站;公交车站相关,31.204282889544036,121.48642118963858
南车站路中山南路(公交站),306路;327路;45路;66路;66路区间,黄浦区,上海市,交通设施服务;公交车站;公交车站相关,31.205872852746595,121.49036412678626
中山南一路鲁班路(公交站),144路;327路;45路;780路;869路;96路;大桥六线,黄浦区,上海市,交通设施服务;公交车站;公交车站相关,31.19984219782269,121.47510622518371
中山南一路打浦路(公交站),144路;205路;327路;45路;781路;933路;大桥六线,黄浦区,上海市,交通设施服务;公交车站;公交车站相关,31.198443428147456,121.47100264544702
西藏南路龙华东路(公交站),18路;318路,黄浦区,上海市,交通设施服务;公交车站;公交车站相关,31.201317018648975,121.48665125897442
打浦路中山南一路(公交站),浦西滨江1路,黄浦区,上海市,交通设施服务;公交车站;公交车站相关,31.196827013398412,121.46983194623634
龙华东路制造局路(公交站),浦西滨江1路,黄浦区,上海市,交通设施服务;公交车站;公交车站相关,31.198232923988147,121.48339701059346
人民广场(西藏中路)(公交站),申城观光1号线,黄浦区,上海市,交通设施服务;公交车站;公交车站相关,31.234545906925398,121.4712443544431
延安东路中山东一路(公交站),311路;316路/316路(夜宵线);320路,黄浦区,上海市,交通设施服务;公交车站;公交车站相关,31.234629510458973,121.48641860179916
金陵东路中山东二路(公交站),145路;934路,黄浦区,上海市,交通设施服务;公交车站;公交车站相关,31.23370461827113,121.48765909537082
中山东一路北京东路(公交站),307路;330路;37路;868路,黄浦区,上海市,交通设施服务;公交车站;公交车站相关,31.24192886341485,121.48563720746701
中山东一路南京东路(公交站),305路;307路;317路;33路;55路;55路大站车(早高峰);55路大站车(晚高峰);65路,黄浦区,上海市,交通设施服务;公交车站;公交车站相关,31.24172511316516,121.48569041346316
中山东二路金陵东路(公交站),305路;317路;33路;55路;576路;576路区间;65路;868路;机场五线,黄浦区,上海市,交通设施服务;公交车站;公交车站相关,31.23329756869127,121.4892588426707
古城公园(新开河路)(公交站),申城观光1号线,黄浦区,上海市,交通设施服务;公交车站;公交车站相关,31.231678084455652,121.49018630059487
新开河路中山东二路(公交站),26路,黄浦区,上海市,交通设施服务;公交车站;公交车站相关,31.231584624324945,121.49001770451571
中山东二路新开河路(公交站),305路;307路;317路;33路;55路;576路;576路(区间)/576路调头车;65路;805路/805路旅游观光环线;866路;868路;926路;机场五线,黄浦区,上海市,交通设施服务;公交车站;公交车站相关,31.232462177247346,121.4903387804761
南外滩·老码头北侧(公交站),都市观光旅游3号线,黄浦区,上海市,交通设施服务;公交车站;公交车站相关,31.221847243831526,121.50173367193814
西藏南路中山南一路(公交站),454路;715路;969路;974路,黄浦区,上海市,交通设施服务;公交车站;公交车站相关,31.204594870566233,121.48477533067671
南外滩·老码头南侧(公交站),都市观光旅游3号线,黄浦区,上海市,交通设施服务;公交车站;公交车站相关,31.21921970132104,121.50281276474584
中山南一路西藏南路(公交站),18路;23路;318路;96路,黄浦区,上海市,交通设施服务;公交车站;公交车站相关,31.203436476801606,121.48411108367128
南浦大桥(沪军营路)(公交站),18路;306路;318路;66路;66路区间;868路;869路;915路;浦西滨江1路,黄浦区,上海市,交通设施服务;公交车站;公交车站相关,31.20801195559413,121.49375211390641
大韩民国临时政府旧址(公交站),都市观光旅游1线,黄浦区,上海市,交通设施服务;公交车站;公交车站相关,31.21900064814711,121.47032767071673
南京路步行街(浙江中路)(公交站),申城观光1号线,黄浦区,上海市,交通设施服务;公交车站;公交车站相关,31.236393109258227,121.47377863043948
淮海中路嵩山路(招呼站)(公交站),南申专线,黄浦区,上海市,交通设施服务;公交车站;公交车站相关,31.225788438431945,121.47141366257415
十六铺码头(中山东二路)(公交站),申城观光2号线,黄浦区,上海市,交通设施服务;公交车站;公交车站相关,31.23243621323181,121.49034681146351
复兴东路轮渡(复兴东路)(公交站),申城观光2号线,黄浦区,上海市,交通设施服务;公交车站;公交车站相关,31.22482288614265,121.49840243942744
外滩金牛广场(中山东一路)(公交站),申城观光2号线,黄浦区,上海市,交通设施服务;公交车站;公交车站相关,31.236729045787726,121.48658702187753
上海南站(公交站),(停运)164路;156路;816路;957路;上石线;机场七线;金山铁路;金山铁路(直达);金山铁路大站停(车墩/亭林),徐汇区,上海市,交通设施服务;公交车站;公交车站相关,31.15810214948014,121.42312234319753
襄阳公园(公交站),327路;45路,徐汇区,上海市,交通设施服务;公交车站;公交车站相关,31.21697230133415,121.4505769280395
常熟路长乐路(公交站),26路;49路,徐汇区,上海市,交通设施服务;公交车站;公交车站相关,31.217044470491825,121.44399944151787
太原路汾阳路(公交站),42路;45路,徐汇区,上海市,交通设施服务;公交车站;公交车站相关,31.21169451278547,121.44952262201849
桃江路衡山路(公交站),49路;927路,徐汇区,上海市,交通设施服务;公交车站;公交车站相关,31.210994655604452,121.44660828477258
太原路永嘉路(公交站),327路;42路,徐汇区,上海市,交通设施服务;公交车站;公交车站相关,31.207615894386166,121.45062385837878
东平路衡山路(公交站),816路,徐汇区,上海市,交通设施服务;公交车站;公交车站相关,31.21063014828473,121.44380152805064
永嘉路岳阳路(公交站),96路,徐汇区,上海市,交通设施服务;公交车站;公交车站相关,31.207586616729557,121.44676095768897
永福路湖南路(公交站),548路,徐汇区,上海市,交通设施服务;公交车站;公交车站相关,31.21036278803436,121.43818901778961
华山路武康路(公交站),113路;328路;48路;548路,徐汇区,上海市,交通设施服务;公交车站;公交车站相关,31.21445493854282,121.43409042983893
日晖新村(公交站),72路,徐汇区,上海市,交通设施服务;公交车站;公交车站相关,31.199477800889603,121.46073215180746
平江路枫林路(公交站),957路,徐汇区,上海市,交通设施服务;公交车站;公交车站相关,31.201661808724733,121.44972200554281
中山医院(公交站),171路;49路,徐汇区,上海市,交通设施服务;公交车站;公交车站相关,31.20111564346705,121.44952353631278
衡山路高安路(公交站),15路;167路;315路;320路;824路;830路;93路,徐汇区,上海市,交通设施服务;公交车站;公交车站相关,31.204405531611968,121.44033014638984
斜土路枫林路(公交站),171路;301路;303路;49路;572路;72路;733路;89路;932路;隧道二线;隧道夜宵一线,徐汇区,上海市,交通设施服务;公交车站;公交车站相关,31.198241688445744,121.45250670790637
吴兴路衡山路(公交站),548路,徐汇区,上海市,交通设施服务;公交车站;公交车站相关,31.204599912665223,121.4394963080068
枫林路斜土路(公交站),218路;326路;49路;徐闵夜宵专线,徐汇区,上海市,交通设施服务;公交车站;公交车站相关,31.197305682002295,121.45141284263035
东安路斜土路(公交站),218路;303路;50路,徐汇区,上海市,交通设施服务;公交车站;公交车站相关,31.197383412376823,121.44715181203942
宛平路衡山路(公交站),15路;315路;830路,徐汇区,上海市,交通设施服务;公交车站;公交车站相关,31.20123253748825,121.43893138319605
斜土路东安路(公交站),171路;218路;301路;303路;326路;49路;572路;72路;733路;89路;932路;徐闵夜宵专线;隧道二线;隧道夜宵一线,徐汇区,上海市,交通设施服务;公交车站;公交车站相关,31.195601764074038,121.44641814246997
衡山路宛平路(公交站),15路;315路;320路;824路;830路;93路,徐汇区,上海市,交通设施服务;公交车站;公交车站相关,31.20045305547245,121.43730302827078
零陵路东安路(公交站),733路;932路,徐汇区,上海市,交通设施服务;公交车站;公交车站相关,31.19308042748428,121.45125979801445
交通大学(公交站),26路;320路;72路;920路;923路;926路;946路;大桥六线,徐汇区,上海市,交通设施服务;公交车站;公交车站相关,31.203090503841775,121.43155372319806
天平路广元路(公交站),320路;72路;926路,徐汇区,上海市,交通设施服务;公交车站;公交车站相关,31.20105934175187,121.43341130354396
肿瘤医院(公交站),301路;49路;50路,徐汇区,上海市,交通设施服务;公交车站;公交车站相关,31.191933706170907,121.45067935598988
东安新村(公交站),50路,徐汇区,上海市,交通设施服务;公交车站;公交车站相关,31.18922325572873,121.45166621673653
龙华医院(公交站),167路;301路;44路;50路;733路;864路;932路,徐汇区,上海市,交通设施服务;公交车站;公交车站相关,31.188949424986614,121.44512656190065
虹桥路恭城路(公交站),44路;548路;572路;830路;836路;855路;93路;958路;大桥六线,徐汇区,上海市,交通设施服务;公交车站;公交车站相关,31.195162401880108,121.43088222129755
徐家汇(公交站),167路;205路;303路;320路;42路;43路;50路;732路;816路;824路;830路;920路;926路;946路;957路;徐闵线;隧道夜宵一线,徐汇区,上海市,交通设施服务;公交车站;公交车站相关,31.192975373683595,121.4334430632596
左家宅(公交站),113路;138路;26路;320路;328路;44路;572路;72路;827路,徐汇区,上海市,交通设施服务;公交车站;公交车站相关,31.200068517196485,121.42093385076076
虹桥路宜山路(公交站),138路;171路;44路;548路;572路;754路;76路;836路;855路;93路,徐汇区,上海市,交通设施服务;公交车站;公交车站相关,31.194077451318172,121.42767294383086
番禺路虹桥路(公交站),572路;76路;827路,徐汇区,上海市,交通设施服务;公交车站;公交车站相关,31.19676809677258,121.42363068718865
南丹路文定路(公交站),205路;754路;830路;920路,徐汇区,上海市,交通设施服务;公交车站;公交车站相关,31.19078952884208,121.43016435400779
宜山路虹桥路(公交站),(停运)752路;138路;171路;824路;830路;93路,徐汇区,上海市,交通设施服务;公交车站;公交车站相关,31.193252500225146,121.42663338666267
双峰路华容路(公交站),166路,徐汇区,上海市,交通设施服务;公交车站;公交车站相关,31.183065160565953,121.44452261905123
华容路双峰路(公交站),714路,徐汇区,上海市,交通设施服务;公交车站;公交车站相关,31.182214973570346,121.4461897339798
南丹路宜山路(公交站),205路;732路;754路;830路;920路,徐汇区,上海市,交通设施服务;公交车站;公交车站相关,31.191463872840185,121.42700812255474
虹桥路凯旋路(公交站),138路;26路;44路;754路;827路;836路;855路,徐汇区,上海市,交通设施服务;公交车站;公交车站相关,31.19684634448521,121.42019322212434
华容路龙华路(公交站),44路,徐汇区,上海市,交通设施服务;公交车站;公交车站相关,31.182001673033152,121.44550207092286
上海体育场(公交站),111路;15路;178路大站车;315路;342路;44路;56路;733路;770路;808路;824路;927路;92路;932路;956路;957路;958路;大桥六线;徐川专线;隧道二线,徐汇区,上海市,交通设施服务;公交车站;公交车站相关,31.184011407370793,121.43966645673467
番禺路南丹路(公交站),76路,徐汇区,上海市,交通设施服务;公交车站;公交车站相关,31.19388131338659,121.42164428644888
上海体育馆(公交站),111路;120路;122路;138路;157路;167路;198路;218路;342路;42路;49路;56路;703路;704B路;704路;718路;720路;721路;754路;808路;824路;89路;923路;926路;92路;957路;985路;万周专线;大桥六线;徐川专线;沪松专线,徐汇区,上海市,交通设施服务;公交车站;公交车站相关,31.185354613822188,121.43496463826463
龙华路华容路(公交站),166路;167路;41路;44路;714路;733路;734路;864路;933路,徐汇区,上海市,交通设施服务;公交车站;公交车站相关,31.17920461312142,121.44815591029932
凯旋路宜山路(公交站),76路,徐汇区,上海市,交通设施服务;公交车站;公交车站相关,31.189790633246247,121.42191198691195
云锦路后马路(公交站),1222路,徐汇区,上海市,交通设施服务;公交车站;公交车站相关,31.174945408035402,121.45296796813615
上海游泳馆(公交站),104路;111路;144路;49路;770路;808路;824路;87路;956路;957路;958路;万周专线;隧道二线,徐汇区,上海市,交通设施服务;公交车站;公交车站相关,31.17891466439012,121.4383751297653
漕溪路枢钮站(公交站),(停运)旗忠网球中心-漕溪路枢钮站,徐汇区,上海市,交通设施服务;公交车站;公交车站相关,31.180465263259954,121.43190030523417
西区汽车站(公交站),(停运)752路;186路;224路;252路;48路;548路;776路/776路高峰定班车;808路;87路;909路;沪松线;沪陈线,徐汇区,上海市,交通设施服务;公交车站;公交车站相关,31.190655181882452,121.41549567047835
龙华(公交站),104路;120路;144路;166路;167路;178路;178路大站车;301路;326路;342路;41路;44路;56路;714路;720路;733路;734路;770路;809路;824路;831路;864路;87路;932路;933路;956路;957路;徐闵夜宵专线,徐汇区,上海市,交通设施服务;公交车站;公交车站相关,31.17551765358668,121.442313099079
丰谷路龙恒路(公交站),167路;734路;933路,徐汇区,上海市,交通设施服务;公交车站;公交车站相关,31.17214657077924,121.45062692095006
龙华(龙吴路)(公交站),809路,徐汇区,上海市,交通设施服务;公交车站;公交车站相关,31.174007584570607,121.44027164408152
云锦路丰谷路(公交站),1222路;167路;734路;933路,徐汇区,上海市,交通设施服务;公交车站;公交车站相关,31.169365465952318,121.45392407600022
漕东路漕溪路(公交站),1204路,徐汇区,上海市,交通设施服务;公交车站;公交车站相关,31.17555381910873,121.43127360976871
龙漕路田东路(公交站),120路;166路;301路;326路;720路;809路;徐闵夜宵专线,徐汇区,上海市,交通设施服务;公交车站;公交车站相关,31.172018437741315,121.43795484168295
龙吴路龙漕路(公交站),111路;144路;178路;178路大站车;342路;56路;714路;720路;733路;770路;824路;932路;956路;957路;958路,徐汇区,上海市,交通设施服务;公交车站;公交车站相关,31.171207398618296,121.4404783415924
龙华机场(公交站),809路;864路;933路,徐汇区,上海市,交通设施服务;公交车站;公交车站相关,31.168494614531127,121.4507034373566
市六医院(公交站),122路;171路;205路;224路;252路;303路;721路;732路;830路;89路;909路;927路;93路,徐汇区,上海市,交通设施服务;公交车站;公交车站相关,31.179114753448268,121.4186970146468
三江路龙漕路(公交站),1204路,徐汇区,上海市,交通设施服务;公交车站;公交车站相关,31.169641727128333,121.43380476544597
柳州路宜山路(公交站),732路;809路;820路;830路;89路;93路,徐汇区,上海市,交通设施服务;公交车站;公交车站相关,31.177106491864933,121.4172846480519
武宣路南宁路(公交站),1204路,徐汇区,上海市,交通设施服务;公交车站;公交车站相关,31.166441837912117,121.43768776607483
桂林路钦江路(公交站),113路;205路;721路;820路,徐汇区,上海市,交通设施服务;公交车站;公交车站相关,31.181645951225402,121.40989992003593
漕河泾(公交站),1204路;1204路B线;157路;166路;186路;198路;218路;301路;315路;326路;43路;50路;703路;704B路;704路;718路;809路;816路;92路;946路;徐闵夜宵专线;徐闵线;沪松专线;沪松线;沪陈线,徐汇区,上海市,交通设施服务;公交车站;公交车站相关,31.170109908854535,121.42794946348668
宜山路桂林路(公交站),171路;205路;224路;252路;303路;721路;809路;89路;909路;927路,徐汇区,上海市,交通设施服务;公交车站;公交车站相关,31.17703386676115,121.41528365183024
柳州路田林路(公交站),712路;809路;820路,徐汇区,上海市,交通设施服务;公交车站;公交车站相关,31.17432239959662,121.41891868208246
云锦路龙耀路(公交站),1222路;56路区间,徐汇区,上海市,交通设施服务;公交车站;公交车站相关,31.161199873161294,121.45528658104786
三江路宾阳路(公交站),1204路,徐汇区,上海市,交通设施服务;公交车站;公交车站相关,31.16543974749123,121.4343401510408
龙耀路云锦路(公交站),1222路;167路;734路;932路;933路,徐汇区,上海市,交通设施服务;公交车站;公交车站相关,31.16118746120543,121.44982475883833
田林路柳州路(公交站),120路;166路;712路;732路;820路;830路;89路;927路;93路;946路;徐闵夜宵专线,徐汇区,上海市,交通设施服务;公交车站;公交车站相关,31.173243717008287,121.41757529194172
龙耀路喜泰路(公交站),(停运)164路;761路;南川线,徐汇区,上海市,交通设施服务;公交车站;公交车站相关,31.16139241083136,121.4484632271742
新龙华(公交站),111路;144路;178路;178路大站车;342路;56路;714路;720路;733路;770路;824路;932路;956路;957路;958路,徐汇区,上海市,交通设施服务;公交车站;公交车站相关,31.162354921323423,121.44359921836922
宾阳路宾南路(公交站),1204路,徐汇区,上海市,交通设施服务;公交车站;公交车站相关,31.165477858695933,121.43185552174387
钦江路苍梧路(公交站),927路,徐汇区,上海市,交通设施服务;公交车站;公交车站相关,31.178766376508275,121.4078239132344
漕宝路习勤路(公交站),120路;166路;186路;198路;43路;809路;92路;946路;徐闵夜宵专线;沪松线,徐汇区,上海市,交通设施服务;公交车站;公交车站相关,31.16965686042202,121.42194477650735
柳州路漕宝路(公交站),122路;712路;809路;820路,徐汇区,上海市,交通设施服务;公交车站;公交车站相关,31.17036077371841,121.42029464409184
桂林路宜山路(公交站),113路;120路;303路;804路;909路;927路,徐汇区,上海市,交通设施服务;公交车站;公交车站相关,31.175110546666424,121.41206104104765
苍梧路钦江路(公交站),120路;804路;927路,徐汇区,上海市,交通设施服务;公交车站;公交车站相关,31.17934550401189,121.40644215350298
钦州路康健路(公交站),1203路,徐汇区,上海市,交通设施服务;公交车站;公交车站相关,31.166560863030224,121.42652152854234
田林路桂林路(公交站),120路;131路;166路;712路;732路;830路;89路;909路;93路;946路;徐闵夜宵专线,徐汇区,上海市,交通设施服务;公交车站;公交车站相关,31.1725170774398,121.4138327251147
虹漕路钦江路(公交站),120路;257路;804路,徐汇区,上海市,交通设施服务;公交车站;公交车站相关,31.179830419572813,121.40390807440996
桂林路田林路(公交站),113路;120路;166路;171路;224路;303路;732路;804路;830路;89路;909路;上嘉线;上青线;徐闵夜宵专线,徐汇区,上海市,交通设施服务;公交车站;公交车站相关,31.17296812294783,121.41279481107976
虹漕路宜山路(公交站),120路;252路,徐汇区,上海市,交通设施服务;公交车站;公交车站相关,31.1769020626261,121.40445752498707
苍梧路宜山路(公交站),120路,徐汇区,上海市,交通设施服务;公交车站;公交车站相关,31.17626148024463,121.40744192476866
石龙路东泉路(公交站),(停运)164路;111路;144路;761路;957路;上奉专线;南川线,徐汇区,上海市,交通设施服务;公交车站;公交车站相关,31.159746309852473,121.44154170555048
南宁路宾南路(公交站),1204路B线,徐汇区,上海市,交通设施服务;公交车站;公交车站相关,31.162274458696675,121.43247492395001
石龙路地铁站(公交站),156路;上奉专线,徐汇区,上海市,交通设施服务;公交车站;公交车站相关,31.159339641673704,121.43888891240428
钦江路虹漕路(公交站),257路;927路,徐汇区,上海市,交通设施服务;公交车站;公交车站相关,31.177943215337947,121.4032900374092
龙吴路黄石路(公交站),178路;178路大站车;342路;56路;714路;720路;733路;770路;824路;831路;932路;956路;958路;上奉专线,徐汇区,上海市,交通设施服务;公交车站;公交车站相关,31.157274084191926,121.44535885489216
桂林路漕宝路(公交站),131路;166路;224路;303路;43路;712路;732路;763路;804路;830路;909路;946路,徐汇区,上海市,交通设施服务;公交车站;公交车站相关,31.16778378678999,121.41421547332006
永川路石龙路(公交站),(停运)164路,徐汇区,上海市,交通设施服务;公交车站;公交车站相关,31.156659967917857,121.43474569350886
苍梧路田林路(公交站),131路;93路,徐汇区,上海市,交通设施服务;公交车站;公交车站相关,31.17086691215609,121.40889321877793
漕宝路桂林路(公交站),120路;122路;186路;198路;92路;沪松线;沪陈线,徐汇区,上海市,交通设施服务;公交车站;公交车站相关,31.16823060547177,121.41287128515441
长峰新村(公交站),733路,徐汇区,上海市,交通设施服务;公交车站;公交车站相关,31.153807239294633,121.45114888194482
桂箐路钦江路(公交站),120路;205路;257路;927路,徐汇区,上海市,交通设施服务;公交车站;公交车站相关,31.176543403912795,121.4004284909975
宜山路虹漕路(公交站),131路;252路;809路;上嘉线,徐汇区,上海市,交通设施服务;公交车站;公交车站相关,31.174419904068564,121.40284821248495
田林路虹漕路(公交站),113路;131路;89路,徐汇区,上海市,交通设施服务;公交车站;公交车站相关,31.171216940166083,121.40716822035445
桂箐路宜山路(公交站),120路;205路;257路;804路,徐汇区,上海市,交通设施服务;公交车站;公交车站相关,31.175146150799222,121.40071065925832
石龙路永川路(公交站),111路;144路;156路;761路;南川线,徐汇区,上海市,交通设施服务;公交车站;公交车站相关,31.15720873672179,121.43353032211806
虹漕路田林路(公交站),909路;93路,徐汇区,上海市,交通设施服务;公交车站;公交车站相关,31.170149142054758,121.40630588874149
桂平路钦江路(公交站),120路;205路;257路,徐汇区,上海市,交通设施服务;公交车站;公交车站相关,31.177911569086678,121.39676614394011
钦江路桂平路(公交站),252路;257路;927路,徐汇区,上海市,交通设施服务;公交车站;公交车站相关,31.176932046196256,121.39775022170437
教育考试院(公交站),224路;703B路,徐汇区,上海市,交通设施服务;公交车站;公交车站相关,31.16185834222432,121.42047059578309
上海师大(公交站),131路;166路;224路;303路;43路;703B路;712路;725路;732路;763路;830路;909路;946路;上嘉线;上青线;徐闵夜宵专线,徐汇区,上海市,交通设施服务;公交车站;公交车站相关,31.16415804897904,121.41473525838435
浦北路柳州路(公交站),1252路;755路;761路,徐汇区,上海市,交通设施服务;公交车站;公交车站相关,31.16000383289238,121.4219255887533
宜山路桂箐路(公交站),131路;804路;809路;89路,徐汇区,上海市,交通设施服务;公交车站;公交车站相关,31.17386072994625,121.40005466896396
永川路罗城路(公交站),192路,徐汇区,上海市,交通设施服务;公交车站;公交车站相关,31.154392270541074,121.43542622173548
桂箐路平果路(公交站),252路,徐汇区,上海市,交通设施服务;公交车站;公交车站相关,31.17163404910227,121.40141309921975
田林路桂箐路(公交站),113路,徐汇区,上海市,交通设施服务;公交车站;公交车站相关,31.170372963212962,121.40279454921374
虹漕路漕宝路(公交站),909路;93路,徐汇区,上海市,交通设施服务;公交车站;公交车站相关,31.16693317870633,121.40725263642108
桂箐路田林路(公交站),120路;205路;257路;89路,徐汇区,上海市,交通设施服务;公交车站;公交车站相关,31.170887457284017,121.40156619690954
长途客运南站(公交站),南浔古镇景区专线,徐汇区,上海市,交通设施服务;公交车站;公交车站相关,31.15464971982583,121.42779054777074
沪闵路柳州路(公交站),180路;218路;301路;326路;50路;703路;704B路;704路;729路;徐闵线,徐汇区,上海市,交通设施服务;公交车站;公交车站相关,31.15780662562789,121.42340475475355
桂平路宜山路(公交站),120路;205路;252路;257路,徐汇区,上海市,交通设施服务;公交车站;公交车站相关,31.172698211478423,121.39825460577183
桂箐路全州路(公交站),252路,徐汇区,上海市,交通设施服务;公交车站;公交车站相关,31.16891953599398,121.40194745499758
宜山路桂平路(公交站),131路;804路;89路;927路;上嘉线,徐汇区,上海市,交通设施服务;公交车站;公交车站相关,31.173225952200948,121.39686554861916
田林路桂平路(公交站),113路;89路,徐汇区,上海市,交通设施服务;公交车站;公交车站相关,31.169956787624532,121.4005660862262
漕宝路虹漕路(公交站),171路;186路;198路;763路;92路;93路;沪松线,徐汇区,上海市,交通设施服务;公交车站;公交车站相关,31.16588417390977,121.40586305695459
桂平路田林路(公交站),120路;252路,徐汇区,上海市,交通设施服务;公交车站;公交车站相关,31.170555331635857,121.39886482890556
浦北路桂林路(公交站),1252路;755路;761路,徐汇区,上海市,交通设施服务;公交车站;公交车站相关,31.157450272722887,121.41801213467588
虹许路宜山路(公交站),700路;757路;804路;809路;865路,徐汇区,上海市,交通设施服务;公交车站;公交车站相关,31.173804117033907,121.39305897827712
桂平路全州路(公交站),113路;252路;257路,徐汇区,上海市,交通设施服务;公交车站;公交车站相关,31.168111633084035,121.39955910690799
桂箐路漕宝路(公交站),113路;120路;205路;257路,徐汇区,上海市,交通设施服务;公交车站;公交车站相关,31.16599215746897,121.40251285260817
龙吴路百色路(公交站),178路;178路大站车;342路;56路;56路区间;714路;720路;770路;824路;831路;956路;958路;上奉专线,徐汇区,上海市,交通设施服务;公交车站;公交车站相关,31.147151052958176,121.44616268878963
漕宝路桂平路(公交站),171路;186路;198路;735路;763路;92路;沪松线,徐汇区,上海市,交通设施服务;公交车站;公交车站相关,31.16512446406914,121.401787747686
虹梅路宜山路(公交站),757路;804路;809路;865路,徐汇区,上海市,交通设施服务;公交车站;公交车站相关,31.17123234180079,121.3935321019813
宜山路虹梅路(公交站),131路;731路;927路,徐汇区,上海市,交通设施服务;公交车站;公交车站相关,31.17104355978689,121.39291425136636
上海植物园(公交站),上奉专线,徐汇区,上海市,交通设施服务;公交车站;公交车站相关,31.145604699495003,121.44607861547844
桂平路漕宝路(公交站),113路;120路;205路;93路,徐汇区,上海市,交通设施服务;公交车站;公交车站相关,31.16350021907731,121.40127677848818
百色路平福路(公交站),720路;824路,徐汇区,上海市,交通设施服务;公交车站;公交车站相关,31.145258597688724,121.44189475464896
沪闵路桂林路(公交站),1252路;166路;218路;326路;50路;704B路;704路;729路;747路;763路;816路;徐闵线;虹桥枢纽1路,徐汇区,上海市,交通设施服务;公交车站;公交车站相关,31.15309035077663,121.41778326442194
古美路宜山路(公交站),131路;700路;89路,徐汇区,上海市,交通设施服务;公交车站;公交车站相关,31.17069550667705,121.39006914309294
园南二村(公交站),720路;824路,徐汇区,上海市,交通设施服务;公交车站;公交车站相关,31.144736528272894,121.43787302680965
古美路田林路(公交站),131路;700路;89路;927路;漕河泾开发区班车B线,徐汇区,上海市,交通设施服务;公交车站;公交车站相关,31.16840738904335,121.39101501057972
虹梅路东兰路(公交站),757路;865路,徐汇区,上海市,交通设施服务;公交车站;公交车站相关,31.160655504332272,121.3996977714375
平福路上中路(公交站),56路区间,徐汇区,上海市,交通设施服务;公交车站;公交车站相关,31.142174323894093,121.44246231739359
桂平路浦北路(公交站),257路;830路,徐汇区,上海市,交通设施服务;公交车站;公交车站相关,31.156734625231522,121.40497147608225
汇成新村(公交站),131路;192路;720路;957路;973路,徐汇区,上海市,交通设施服务;公交车站;公交车站相关,31.145030740335724,121.42992390416177
古美路田州路(公交站),700路,徐汇区,上海市,交通设施服务;公交车站;公交车站相关,31.16471979048764,121.39304477181257
田州路古美路(公交站),漕河泾开发区班车B线,徐汇区,上海市,交通设施服务;公交车站;公交车站相关,31.16511491040845,121.39165609779357
龙吴路龙瑞路(公交站),56路区间;770路,徐汇区,上海市,交通设施服务;公交车站;公交车站相关,31.140797847083967,121.44732512067921
园南新村(公交站),131路,徐汇区,上海市,交通设施服务;公交车站;公交车站相关,31.143072644379952,121.43444127899312
莲花路田林路(公交站),(停运)752路;548路;731路;867路;漕河泾开发区班车B线,徐汇区,上海市,交通设施服务;公交车站;公交车站相关,31.167550921145185,121.38794232485604
嘉川路百色路(公交站),192路;720路,徐汇区,上海市,交通设施服务;公交车站;公交车站相关,31.14397237509699,121.42926688619822
浦北路桂江路(公交站),1252路;804路,徐汇区,上海市,交通设施服务;公交车站;公交车站相关,31.152865931622095,121.40578815515526
平福路罗秀路(公交站),56路区间,徐汇区,上海市,交通设施服务;公交车站;公交车站相关,31.13862244980384,121.44360828520179
江安路桂平路(公交站),(停运)341路;804路;810路;946路,徐汇区,上海市,交通设施服务;公交车站;公交车站相关,31.150180997289056,121.40952140790738
龙川路罗香路(公交站),755路,徐汇区,上海市,交通设施服务;公交车站;公交车站相关,31.139676904187752,121.4376900821601
莲花路漕宝路(公交站),(停运)752路;548路;731路;867路;虹桥镇2路,徐汇区,上海市,交通设施服务;公交车站;公交车站相关,31.162772768688978,121.38955902970066
古美路东兰路(公交站),150路;171路;700路;古美环线(内圈);古美环线(外圈),徐汇区,上海市,交通设施服务;公交车站;公交车站相关,31.15746813241954,121.39621094870827
桂平路江安路(公交站),1252路;257路;803路;804路;93路;946路,徐汇区,上海市,交通设施服务;公交车站;公交车站相关,31.150002296843432,121.40789945480117
罗秀路龙吴路(公交站),56路;56路区间;755路;820路,徐汇区,上海市,交通设施服务;公交车站;公交车站相关,31.13706983507662,121.44684424125134
长桥路上中路(公交站),820路;824路;闵行20路,徐汇区,上海市,交通设施服务;公交车站;公交车站相关,31.139089929510394,121.43454081505513
上海中学(公交站),131路;180路;707路;718路;731路;755路;804路;831路,徐汇区,上海市,交通设施服务;公交车站;公交车站相关,31.139671798774128,121.43210219936451
江安路桂江路(公交站),703B路;731路;732路,徐汇区,上海市,交通设施服务;公交车站;公交车站相关,31.14928719528098,121.40678093064302
龙吴路罗秀路(公交站),178路;178路大站车;342路;714路;731路;755路;770路;804路;956路;958路;上奉专线;闵行20路,徐汇区,上海市,交通设施服务;公交车站;公交车站相关,31.13579971768775,121.44929155773048
华东理工大学(公交站),157路;326路;50路;720路;729路;957路,徐汇区,上海市,交通设施服务;公交车站;公交车站相关,31.142611314211432,121.42032008147764
龙川路罗秀路(公交站),111路;326路;56路;731路;820路,徐汇区,上海市,交通设施服务;公交车站;公交车站相关,31.13676422875489,121.43869244209876
罗香路长桥路(公交站),111路;326路;56路;755路;820路,徐汇区,上海市,交通设施服务;公交车站;公交车站相关,31.13762127250955,121.43609299697947
虹梅路顾戴路(公交站),757路;865路,徐汇区,上海市,交通设施服务;公交车站;公交车站相关,31.149777070455205,121.40428481983211
龙临路上中路(公交站),804路;820路;824路,徐汇区,上海市,交通设施服务;公交车站;公交车站相关,31.137620815835852,121.43204928079417
嘉川路天等路(公交站),156路;192路;720路,徐汇区,上海市,交通设施服务;公交车站;公交车站相关,31.140510052109175,121.42277940461038
罗秀路龙川路(公交站),56路;731路;755路;804路;820路;闵行20路,徐汇区,上海市,交通设施服务;公交车站;公交车站相关,31.135485072358875,121.44097051630303
上中路龙临路(公交站),180路;718路;831路;闵行20路,徐汇区,上海市,交通设施服务;公交车站;公交车站相关,31.138502835864685,121.42893881345856
长桥路罗秀路(公交站),731路;804路,徐汇区,上海市,交通设施服务;公交车站;公交车站相关,31.136398569068454,121.43587867388646
罗香路龙临路(公交站),111路;326路;56路;707路;820路;824路,徐汇区,上海市,交通设施服务;公交车站;公交车站相关,31.136809550323324,121.43289790461084
莲花路东兰路(公交站),150路;731路;867路,徐汇区,上海市,交通设施服务;公交车站;公交车站相关,31.155725720613486,121.39195482865367
桂江路沪闵路(公交站),257路,徐汇区,上海市,交通设施服务;公交车站;公交车站相关,31.144919627086495,121.40922367649434
长桥新村(公交站),111路;326路;707路,徐汇区,上海市,交通设施服务;公交车站;公交车站相关,31.135519147476796,121.43653607155011
梅陇路龙州路(公交站),157路;192路;326路;50路;50路区间;720路;729路;957路,徐汇区,上海市,交通设施服务;公交车站;公交车站相关,31.1411655506791,121.41650095781266
龙吴路华发路(公交站),闵行20路,徐汇区,上海市,交通设施服务;公交车站;公交车站相关,31.13004458073641,121.45100554345802
龙州路梅陇路(公交站),50路区间,徐汇区,上海市,交通设施服务;公交车站;公交车站相关,31.140079879658895,121.41847915685578
罗秀路长桥路(公交站),804路,徐汇区,上海市,交通设施服务;公交车站;公交车站相关,31.13411640140198,121.43564240090772
梅陇汽车站(公交站),枫梅线;石梅线,徐汇区,上海市,交通设施服务;公交车站;公交车站相关,31.143374961972423,121.40823321823396
梅陇路凌云路(公交站),50路区间,徐汇区,上海市,交通设施服务;公交车站;公交车站相关,31.140624804147116,121.41522575761222
龙州路嘉川路(公交站),192路;957路,徐汇区,上海市,交通设施服务;公交车站;公交车站相关,31.138603435614645,121.41928920632635
梅陇(公交站),南梅线;松梅专线,徐汇区,上海市,交通设施服务;公交车站;公交车站相关,31.143252906113158,121.40797208136257
凌云路梅陇路(公交站),157路;192路;50路;50路区间;720路;731路;957路,徐汇区,上海市,交通设施服务;公交车站;公交车站相关,31.13949171622382,121.41431701986745
徐浦大桥(公交站),178路;178路大站车;342路;714路;731路;755路;770路;804路;820路;956路;958路;上奉专线,徐汇区,上海市,交通设施服务;公交车站;公交车站相关,31.12993968873625,121.45102861370887
天等路罗秀路(公交站),192路,徐汇区,上海市,交通设施服务;公交车站;公交车站相关,31.134819088396906,121.42449928060373
华发路龙吴路(公交站),1220路;714路,徐汇区,上海市,交通设施服务;公交车站;公交车站相关,31.12906060624639,121.45032483048774
嘉川路凌云路(公交站),131路;192路;50路;50路区间;720路;731路;804路;865路;957路,徐汇区,上海市,交通设施服务;公交车站;公交车站相关,31.13781491781845,121.415989738115
徐梅路龙吴路(公交站),浦西滨江1路,徐汇区,上海市,交通设施服务;公交车站;公交车站相关,31.12648978182405,121.45463172430398
罗秀路天等路(公交站),50路;56路;831路;867路,徐汇区,上海市,交通设施服务;公交车站;公交车站相关,31.132871136139546,121.4261268445172
凌云路嘉川路(公交站),131路;157路;50路区间;720路;731路;804路,徐汇区,上海市,交通设施服务;公交车站;公交车站相关,31.136768354065495,121.41583667879627
华发路长华路(公交站),1220路;714路;820路,徐汇区,上海市,交通设施服务;公交车站;公交车站相关,31.128725180567095,121.44279123432571
罗秀路龙州路(公交站),56路;867路,徐汇区,上海市,交通设施服务;公交车站;公交车站相关,31.132322266201236,121.42261990057325
龙州路罗秀路(公交站),192路;56路;957路,徐汇区,上海市,交通设施服务;公交车站;公交车站相关,31.132714005941914,121.42165760819069
凌云路罗秀路(公交站),56路,徐汇区,上海市,交通设施服务;公交车站;公交车站相关,31.133395760896455,121.41770789113255
龙吴路徐梅路(公交站),1220路;731路;770路;956路;浦西滨江1路,徐汇区,上海市,交通设施服务;公交车站;公交车站相关,31.124164671167247,121.45229851236495
罗秀路凌云路(公交站),157路;218路;50路;50路区间;831路;957路,徐汇区,上海市,交通设施服务;公交车站;公交车站相关,31.13137022523046,121.41812051496244
华泾小区(公交站),804路,徐汇区,上海市,交通设施服务;公交车站;公交车站相关,31.12328146263792,121.44139251341197
华泾路龙吟路(公交站),1210路;804路;873路;浦西滨江1路,徐汇区,上海市,交通设施服务;公交车站;公交车站相关,31.121810084768995,121.45057009895511
龙吴路华泾路(公交站),1210路;1220路;178路;178路大站车;342路;731路;770路;956路;958路,徐汇区,上海市,交通设施服务;公交车站;公交车站相关,31.120917683980768,121.45240608218649
华泾卫生中心(公交站),1210路,徐汇区,上海市,交通设施服务;公交车站;公交车站相关,31.122980658849936,121.44033719060619
长华路华泾路(公交站),714路;718路;731路;770路;浦西滨江1路,徐汇区,上海市,交通设施服务;公交车站;公交车站相关,31.12201792183901,121.44436750996415
华泾路位育路(公交站),873路,徐汇区,上海市,交通设施服务;公交车站;公交车站相关,31.120146014254242,121.44130859496215
华泾镇政府(公交站),上奉专线,徐汇区,上海市,交通设施服务;公交车站;公交车站相关,31.120841414139488,121.45226871712615
华泾路长华路(公交站),1210路;1220路;714路;718路;770路,徐汇区,上海市,交通设施服务;公交车站;公交车站相关,31.121283007784463,121.44569777756736
龙吟路华泾路(公交站),1210路;1220路,徐汇区,上海市,交通设施服务;公交车站;公交车站相关,31.120541612850488,121.44865823980719
华泾新村(公交站),1210路;1220路;714路;718路,徐汇区,上海市,交通设施服务;公交车站;公交车站相关,31.12019030734955,121.44147696986835
沙家浜小区(公交站),1210路,徐汇区,上海市,交通设施服务;公交车站;公交车站相关,31.117656121231818,121.45570349433113
华济路龙吴路(公交站),1210路;1220路;731路;770路,徐汇区,上海市,交通设施服务;公交车站;公交车站相关,31.117579178193914,121.45047120181003
紫阳花苑(公交站),731路,徐汇区,上海市,交通设施服务;公交车站;公交车站相关,31.117552483902244,121.44923197216019
龙吟路华济路(公交站),1220路;718路;770路;浦西滨江1路,徐汇区,上海市,交通设施服务;公交车站;公交车站相关,31.117515090391908,121.44904048144582
紫阳花园(公交站),1210路,徐汇区,上海市,交通设施服务;公交车站;公交车站相关,31.116082185461405,121.44825258796078
紫阳(公交站),上奉专线,徐汇区,上海市,交通设施服务;公交车站;公交车站相关,31.11522142444342,121.45135073493847
龙吴路华展路(公交站),178路;178路大站车;342路;770路;956路;958路,徐汇区,上海市,交通设施服务;公交车站;公交车站相关,31.115252458964754,121.45137379378309
华展路龙吴路(公交站),1210路;770路,徐汇区,上海市,交通设施服务;公交车站;公交车站相关,31.114057849664118,121.44943880756816
望月路银都路(公交站),1210路,徐汇区,上海市,交通设施服务;公交车站;公交车站相关,31.110789220819054,121.45370750726366
龙吴路银都路(公交站),1210路;178路;178路大站车;342路;956路;958路,徐汇区,上海市,交通设施服务;公交车站;公交车站相关,31.10997809816649,121.44989835309326
龙吴路景联路(公交站),178路;178路大站车;342路,徐汇区,上海市,交通设施服务;公交车站;公交车站相关,31.104393537113364,121.44960005601924
关港(公交站),上奉专线,徐汇区,上海市,交通设施服务;公交车站;公交车站相关,31.104386558453275,121.44960807745652
襄阳北路长乐路(公交站),94路,徐汇区,上海市,交通设施服务;公交车站;公交车站相关,31.220209273527487,121.45080625541765
复兴中路汾阳路(公交站),96路,徐汇区,上海市,交通设施服务;公交车站;公交车站相关,31.214256070738887,121.4516871169134
永嘉路陕西南路(公交站),96路,徐汇区,上海市,交通设施服务;公交车站;公交车站相关,31.21175312896034,121.45594810741841
淮海中路常熟路(公交站),320路;327路;45路;911路;920路;926路,徐汇区,上海市,交通设施服务;公交车站;公交车站相关,31.21533773236301,121.44668409793208
襄阳南路永嘉路(公交站),327路;42路;45路,徐汇区,上海市,交通设施服务;公交车站;公交车站相关,31.210362748628903,121.45336300251776
常熟路淮海中路(公交站),15路;26路;315路;327路;45路;49路;824路;830路;927路,徐汇区,上海市,交通设施服务;公交车站;公交车站相关,31.216586825484075,121.44406864495866
永嘉路襄阳南路(公交站),96路,徐汇区,上海市,交通设施服务;公交车站;公交车站相关,31.210475560957846,121.4524294448912
宝庆路淮海中路(公交站),15路;315路;49路;824路;830路;927路,徐汇区,上海市,交通设施服务;公交车站;公交车站相关,31.21298807748711,121.44533098174372
衡山路复兴中路(公交站),15路;167路;315路;824路;830路;927路,徐汇区,上海市,交通设施服务;公交车站;公交车站相关,31.21093063113397,121.44511664078343
瑞金南路斜土路(公交站),205路;41路;96路,徐汇区,上海市,交通设施服务;公交车站;公交车站相关,31.20392564514482,121.46309595923806
瑞金南路打浦桥(公交站),781路,徐汇区,上海市,交通设施服务;公交车站;公交车站相关,31.2039236461186,121.46309595941004
太原路建国西路(公交站),327路;42路;45路,徐汇区,上海市,交通设施服务;公交车站;公交车站相关,31.205694998879345,121.45115242549852
斜土路瑞金南路(公交站),205路;733路;89路,徐汇区,上海市,交通设施服务;公交车站;公交车站相关,31.202537753085913,121.46209400971512
岳阳路建国西路(公交站),49路;927路,徐汇区,上海市,交通设施服务;公交车站;公交车站相关,31.20469535809249,121.4483451950124
建国西路岳阳路(公交站),42路,徐汇区,上海市,交通设施服务;公交车站;公交车站相关,31.205153303233395,121.44748096719991
复兴西路武康路(公交站),96路,徐汇区,上海市,交通设施服务;公交车站;公交车站相关,31.212599363798265,121.43741621109824
复兴西路华山路(公交站),548路;96路,徐汇区,上海市,交通设施服务;公交车站;公交车站相关,31.212704887281127,121.43539010596466
肇嘉浜路枫林路(公交站),171路;205路;218路;42路;43路;49路;864路;957路;985路;徐川专线,徐汇区,上海市,交通设施服务;公交车站;公交车站相关,31.20254624322699,121.44966076985064
武康路复兴西路(公交站),548路,徐汇区,上海市,交通设施服务;公交车站;公交车站相关,31.21153567163964,121.43612466975085
大木桥路斜土路(公交站),104路;327路;45路;572路;932路;隧道二线,徐汇区,上海市,交通设施服务;公交车站;公交车站相关,31.199618753295326,121.4575026105761
小木桥路斜土路(公交站),104路;171路;301路;303路;327路;45路;隧道一线;隧道一线区间;隧道夜宵一线,徐汇区,上海市,交通设施服务;公交车站;公交车站相关,31.201040472589114,121.45257565418152
高安路淮海中路(公交站),320路;548路,徐汇区,上海市,交通设施服务;公交车站;公交车站相关,31.20828293431531,121.43938975901425
淮海中路高安路(公交站),26路;320路;911路;920路;926路,徐汇区,上海市,交通设施服务;公交车站;公交车站相关,31.20906472343004,121.43836450026433
斜土路大木桥路(公交站),205路;301路;303路;72路;733路;89路;932路;隧道夜宵一线,徐汇区,上海市,交通设施服务;公交车站;公交车站相关,31.199631779114544,121.45584987092802
吴兴路淮海中路(公交站),548路,徐汇区,上海市,交通设施服务;公交车站;公交车站相关,31.207810499316604,121.43731742135772
高安路建国西路(公交站),548路,徐汇区,上海市,交通设施服务;公交车站;公交车站相关,31.20265281857214,121.4421573995407
肇嘉浜路东安路(公交站),171路;205路;303路;43路;50路;864路;927路;957路;徐川专线,徐汇区,上海市,交通设施服务;公交车站;公交车站相关,31.201114251437115,121.44404692982057
零陵路大木桥路(公交站),932路,徐汇区,上海市,交通设施服务;公交车站;公交车站相关,31.19573311819221,121.4580996796434
肇嘉浜路高安路(公交站),徐闵线,徐汇区,上海市,交通设施服务;公交车站;公交车站相关,31.20091796128609,121.44334329093984
东安路肇嘉浜路(公交站),218路,徐汇区,上海市,交通设施服务;公交车站;公交车站相关,31.199540973668416,121.44600478533903
建国西路宛平路(公交站),42路,徐汇区,上海市,交通设施服务;公交车站;公交车站相关,31.202302261799407,121.44016997586209
淮海中路武康路(公交站),26路;911路;920路;926路,徐汇区,上海市,交通设施服务;公交车站;公交车站相关,31.206281595295593,121.43391580488209
肇嘉浜路吴兴路(公交站),171路;205路;42路;43路;548路;864路;927路;957路,徐汇区,上海市,交通设施服务;公交车站;公交车站相关,31.200435102973557,121.44173763567528
小木桥路零陵路(公交站),572路,徐汇区,上海市,交通设施服务;公交车站;公交车站相关,31.19366893166415,121.45677602693104
天平路淮海中路(公交站),320路;926路,徐汇区,上海市,交通设施服务;公交车站;公交车站相关,31.204345391325557,121.43318960374512
斜土路宛平南路(公交站),218路;303路;326路;572路;72路;733路;89路;932路;隧道二线;隧道夜宵一线,徐汇区,上海市,交通设施服务;公交车站;公交车站相关,31.195017704442424,121.44527138850627
肇嘉浜路天平路(公交站),44路;816路;824路,徐汇区,上海市,交通设施服务;公交车站;公交车站相关,31.197216830636044,121.4374105303598
瑞宁路龙腾大道(公交站),浦西滨江1路,徐汇区,上海市,交通设施服务;公交车站;公交车站相关,31.188034858506217,121.46246237797803
徐家汇(华山路)(公交站),320路;855路;920路;923路;926路;946路;958路,徐汇区,上海市,交通设施服务;公交车站;公交车站相关,31.199231156035946,121.43271616819851
宛平南路斜土路(公交站),178路大站车;218路;301路;44路;50路;864路;89路;956路;徐川专线;徐闵夜宵专线,徐汇区,上海市,交通设施服务;公交车站;公交车站相关,31.191568235433397,121.44368088991668
南丹东路斜土路(公交站),72路;隧道二线;隧道夜宵一线,徐汇区,上海市,交通设施服务;公交车站;公交车站相关,31.192650351774216,121.44035421547044
天钥桥路辛耕路(公交站),956路,徐汇区,上海市,交通设施服务;公交车站;公交车站相关,31.194474550608252,121.43704301046071
斜土路南丹东路(公交站),15路;315路,徐汇区,上海市,交通设施服务;公交车站;公交车站相关,31.19202649960549,121.4413404653815
龙腾大道瑞宁路(公交站),浦西滨江1路,徐汇区,上海市,交通设施服务;公交车站;公交车站相关,31.18575341621065,121.45904932130084
广元西路恭城路(公交站),855路,徐汇区,上海市,交通设施服务;公交车站;公交车站相关,31.197920775872745,121.42930026992933
龙华中路东安路(公交站),1222路,徐汇区,上海市,交通设施服务;公交车站;公交车站相关,31.18669905024846,121.45190307020964
广元西路华山路(公交站),958路,徐汇区,上海市,交通设施服务;公交车站;公交车站相关,31.197121512530018,121.42882755298052
徐家汇(下客站)(公交站),122路,徐汇区,上海市,交通设施服务;公交车站;公交车站相关,31.193038425914153,121.43349615765204
零陵路双峰北路(公交站),178路大站车;218路;326路;89路;956路;徐川专线;徐闵夜宵专线,徐汇区,上海市,交通设施服务;公交车站;公交车站相关,31.18911536048136,121.44102701418139
番禺路淮海西路(公交站),76路;827路,徐汇区,上海市,交通设施服务;公交车站;公交车站相关,31.200265137168792,121.42427929369312
宜山北路虹桥路(公交站),855路;920路,徐汇区,上海市,交通设施服务;公交车站;公交车站相关,31.19634430824983,121.42839891715145
龙华路宛平南路(公交站),41路;734路;933路,徐汇区,上海市,交通设施服务;公交车站;公交车站相关,31.184746735460642,121.44905072326463
天钥桥路斜土路(公交站),122路;178路大站车;218路;326路;342路;44路;56路;770路;864路;956路;958路;大桥六线;隧道二线,徐汇区,上海市,交通设施服务;公交车站;公交车站相关,31.189204294014925,121.43769381121263
广元西路虹桥路(公交站),26路,徐汇区,上海市,交通设施服务;公交车站;公交车站相关,31.195969088242254,121.4265800689862
宛平南路龙华路(公交站),1222路;41路;44路;733路;734路;864路;933路,徐汇区,上海市,交通设施服务;公交车站;公交车站相关,31.18458244284481,121.44794090142817
南丹路漕溪北路(公交站),205路;732路;920路,徐汇区,上海市,交通设施服务;公交车站;公交车站相关,31.190871476553212,121.43015633312812
漕溪北路裕德路(公交站),122路;167路;303路;342路;42路;43路;50路;56路;754路;770路;816路;824路;923路;926路;927路;946路;957路;958路;徐川专线;徐闵线;隧道二线,徐汇区,上海市,交通设施服务;公交车站;公交车站相关,31.186973975423705,121.43189172617903
宜山路蒲汇塘路(公交站),138路;171路;205路;732路;754路;76路;830路;93路,徐汇区,上海市,交通设施服务;公交车站;公交车站相关,31.19096496569869,121.42530458338811
龙腾大道丰谷路(公交站),浦西滨江1路,徐汇区,上海市,交通设施服务;公交车站;公交车站相关,31.176271111094117,121.45737424466435
徐虹北路凯旋路(公交站),(停运)752路,徐汇区,上海市,交通设施服务;公交车站;公交车站相关,31.19090721812412,121.42204205912529
吴中东路凯旋路(公交站),(停运)752路;548路,徐汇区,上海市,交通设施服务;公交车站;公交车站相关,31.192284808588926,121.41939066637545
中山西路吴中路(公交站),224路;252路;48路;776路/776路高峰定班车;909路,徐汇区,上海市,交通设施服务;公交车站;公交车站相关,31.191922103563382,121.41617622542734
宜山路中山西路(公交站),171路;205路;732路;830路;93路,徐汇区,上海市,交通设施服务;公交车站;公交车站相关,31.186155366043867,121.42274540136378
中山西路宜山路(公交站),122路;138路;224路;252路;303路;721路;754路;808路;87路;89路;909路;927路,徐汇区,上海市,交通设施服务;公交车站;公交车站相关,31.183926802984228,121.42389917551051
龙华西路龙恒路(公交站),44路,徐汇区,上海市,交通设施服务;公交车站;公交车站相关,31.172432224370613,121.44869988205718
宋园路红松东路(公交站),虹桥镇社区巴士,徐汇区,上海市,交通设施服务;公交车站;公交车站相关,31.192222115566246,121.40886134250786
漕溪路田林东路(公交站),120路;157路;198路;218路;315路;43路;50路;703路;704B路;704路;718路;720路;816路;92路;946路;徐闵线,徐汇区,上海市,交通设施服务;公交车站;公交车站相关,31.177423462601244,121.43099896286945
龙腾大道龙兰路(公交站),浦西滨江1路,徐汇区,上海市,交通设施服务;公交车站;公交车站相关,31.169315693245675,121.45861445317851
丰谷路机场西路(公交站),809路,徐汇区,上海市,交通设施服务;公交车站;公交车站相关,31.170981104994492,121.44922736474841
漕东支路漕东路(公交站),1204路,徐汇区,上海市,交通设施服务;公交车站;公交车站相关,31.174837676473697,121.43291765265484
田林东路漕溪路(公交站),120路;122路;927路;946路,徐汇区,上海市,交通设施服务;公交车站;公交车站相关,31.176583199607037,121.42839261962989
钦州路田林东路(公交站),122路,徐汇区,上海市,交通设施服务;公交车站;公交车站相关,31.17761116579241,121.42404492790627
田林东路钦州路(公交站),120路;122路;946路,徐汇区,上海市,交通设施服务;公交车站;公交车站相关,31.17493310052872,121.42279944751174
桂林路钦州北路(公交站),113路;721路,徐汇区,上海市,交通设施服务;公交车站;公交车站相关,31.183477888277924,121.40964059113392
龙腾大道云锦路(公交站),浦西滨江1路,徐汇区,上海市,交通设施服务;公交车站;公交车站相关,31.162769595614137,121.46043641359631
漕河泾(漕宝路)(公交站),1203路,徐汇区,上海市,交通设施服务;公交车站;公交车站相关,31.170109919603153,121.42795747636079
田林东路柳州路(公交站),122路,徐汇区,上海市,交通设施服务;公交车站;公交车站相关,31.173875720674538,121.42004203454854
漕河泾(沪闵路)(公交站),1203路,徐汇区,上海市,交通设施服务;公交车站;公交车站相关,31.168659906059425,121.42958528447272
钦州北路桂林路(公交站),205路;804路,徐汇区,上海市,交通设施服务;公交车站;公交车站相关,31.1825733970806,121.4077015152189
钦州北路苍梧路(公交站),120路;205路,徐汇区,上海市,交通设施服务;公交车站;公交车站相关,31.18189569906328,121.4049912962354
钦州北路虹漕路(公交站),120路;205路;257路,徐汇区,上海市,交通设施服务;公交车站;公交车站相关,31.181231399726293,121.40264156201421
沪闵路冠生园路(公交站),157路;301路;326路;50路;718路;816路,徐汇区,上海市,交通设施服务;公交车站;公交车站相关,31.164425395777265,121.42908881891975
冠生园路钦州路(公交站),1203路,徐汇区,上海市,交通设施服务;公交车站;公交车站相关,31.16539232837806,121.42561926641235
钦州路冠生园路(公交站),1203路,徐汇区,上海市,交通设施服务;公交车站;公交车站相关,31.16469570017838,121.42642253853715
冠生园路柳州路(公交站),1203路,徐汇区,上海市,交通设施服务;公交车站;公交车站相关,31.165184125000692,121.42190711558041
龙水南路临江路(公交站),1222路;56路区间;733路;932路;浦西滨江1路,徐汇区,上海市,交通设施服务;公交车站;公交车站相关,31.156025686772033,121.4518676133403
钦州南路钦州路(公交站),1203路,徐汇区,上海市,交通设施服务;公交车站;公交车站相关,31.163037445931423,121.42471815045585
桂箐路钦州北路(公交站),205路;257路,徐汇区,上海市,交通设施服务;公交车站;公交车站相关,31.179655755708335,121.399772127737
柳州路钦州南路(公交站),224路;703B路;725路;820路,徐汇区,上海市,交通设施服务;公交车站;公交车站相关,31.163597038008945,121.42105116278906
钦州北路桂平路(公交站),120路;205路;257路,徐汇区,上海市,交通设施服务;公交车站;公交车站相关,31.179642678944806,121.39712498474177
冠生园路桂林路(公交站),224路,徐汇区,上海市,交通设施服务;公交车站;公交车站相关,31.16479651371099,121.41694936650046
钦州南路柳州路(公交站),1203路;725路;755路;761路,徐汇区,上海市,交通设施服务;公交车站;公交车站相关,31.161628939002814,121.41995098821198
龙吴路龙水南路(公交站),178路;178路大站车;342路;56路;56路区间;714路;720路;770路;824路;956路;958路;上奉专线,徐汇区,上海市,交通设施服务;公交车站;公交车站相关,31.153226717644973,121.44561081562765
沪闵路柳州南路(公交站),703路,徐汇区,上海市,交通设施服务;公交车站;公交车站相关,31.15802766778546,121.42354192453872
龙川北路石龙路(公交站),180路;718路;810路;820路,徐汇区,上海市,交通设施服务;公交车站;公交车站相关,31.153619934153173,121.43178742507315
虹漕南路漕宝路(公交站),122路;735路,徐汇区,上海市,交通设施服务;公交车站;公交车站相关,31.164089035203155,121.4081233562722
虹梅路环镇南路(公交站),69路,徐汇区,上海市,交通设施服务;公交车站;公交车站相关,31.17779076663697,121.39043539196473
龙川北路罗城路(公交站),180路;718路;810路;820路;957路;南南线,徐汇区,上海市,交通设施服务;公交车站;公交车站相关,31.152088994104997,121.43261305832287
桂林路桂林东街(公交站),131路;166路;303路;43路;712路;755路;761路;763路,徐汇区,上海市,交通设施服务;公交车站;公交车站相关,31.15901342640907,121.41563655431955
钦州南路桂林路(公交站),703B路;725路;732路;804路;830路;946路,徐汇区,上海市,交通设施服务;公交车站;公交车站相关,31.159640159517632,121.41302515794429
石龙路龙川北路(公交站),111路;144路;157路;192路;729路;761路;810路,徐汇区,上海市,交通设施服务;公交车站;公交车站相关,31.152319608270588,121.42753834804925
桂林路桂林西街(公交站),(停运)341路;131路;166路;303路;43路;755路;761路;763路;上嘉线;上青线;徐闵夜宵专线,徐汇区,上海市,交通设施服务;公交车站;公交车站相关,31.15529491377158,121.41856993891658
石龙路老沪闵路(公交站),111路;156路;157路;192路;761路;810路;867路;973路,徐汇区,上海市,交通设施服务;公交车站;公交车站相关,31.149692632593553,121.42488755166984
龙腾大道龙瑞路(公交站),浦西滨江1路,徐汇区,上海市,交通设施服务;公交车站;公交车站相关,31.142782542356155,121.45046100923894
桂平路钦州南路(公交站),257路;93路,徐汇区,上海市,交通设施服务;公交车站;公交车站相关,31.1604351474779,121.4030014729795
浦北路桂林西街(公交站),(停运)341路;1252路;712路;755路,徐汇区,上海市,交通设施服务;公交车站;公交车站相关,31.15436894160325,121.41152843708406
虹漕南路浦北路(公交站),122路;43路;703B路;725路;732路;735路;804路;830路;93路;946路,徐汇区,上海市,交通设施服务;公交车站;公交车站相关,31.154778037238714,121.41036056489256
百色路龙川北路(公交站),720路;824路;973路,徐汇区,上海市,交通设施服务;公交车站;公交车站相关,31.14444007251707,121.43515154125667
浦北路虹漕南路(公交站),732路;804路;93路,徐汇区,上海市,交通设施服务;公交车站;公交车站相关,31.153996281131608,121.41006243086375
龙川北路百色路(公交站),180路;192路;718路;810路;820路;824路;957路;973路;南南线,徐汇区,上海市,交通设施服务;公交车站;公交车站相关,31.143606113874764,121.43428793806196
虹漕南路江安路(公交站),122路;257路;43路;712路;725路;731路;735路;755路;810路,徐汇区,上海市,交通设施服务;公交车站;公交车站相关,31.15068650776925,121.41251351904722
龙川北路上中路(公交站),180路;718路;810路;820路;824路;831路;973路;南南线,徐汇区,上海市,交通设施服务;公交车站;公交车站相关,31.141461049187615,121.43538926599628
百色路老沪闵路(公交站),957路,徐汇区,上海市,交通设施服务;公交车站;公交车站相关,31.144076970652975,121.42518647381877
嘉川路老沪闵路(公交站),192路;720路,徐汇区,上海市,交通设施服务;公交车站;公交车站相关,31.142176567743864,121.42645453774793
龙腾大道进木港(公交站),浦西滨江1路,徐汇区,上海市,交通设施服务;公交车站;公交车站相关,31.135766897948432,121.45339149440795
沪闵路虹漕南路(公交站),131路;166路;218路;326路;50路;703路;704B路;704路;725路;731路;735路;747路;755路;804路;816路;徐闵夜宵专线;徐闵线;虹桥枢纽1路,徐汇区,上海市,交通设施服务;公交车站;公交车站相关,31.147580777171413,121.41194133965656
沪闵路虹梅南路(公交站),122路;131路;166路;50路;50路区间;703路;704B路;704路;712路;725路;735路;747路;816路;上石线;徐闵夜宵专线;徐闵线;沪松专线;虹桥枢纽1路,徐汇区,上海市,交通设施服务;公交车站;公交车站相关,31.144932624293332,121.40923168036599
老沪闵路上中路(公交站),111路;131路;326路;50路;718路;831路;867路,徐汇区,上海市,交通设施服务;公交车站;公交车站相关,31.137138738389865,121.42833494077684
天等路上中西路(公交站),156路;192路;50路,徐汇区,上海市,交通设施服务;公交车站;公交车站相关,31.137483380670535,121.42340651803462
老沪闵路罗秀路(公交站),50路;56路;707路;718路;831路;867路,徐汇区,上海市,交通设施服务;公交车站;公交车站相关,31.135450658771905,121.43048269322661
龙腾大道徐梅路(公交站),浦西滨江1路,徐汇区,上海市,交通设施服务;公交车站;公交车站相关,31.129809819452838,121.45750059585335
罗秀路老沪闵路(公交站),56路;867路,徐汇区,上海市,交通设施服务;公交车站;公交车站相关,31.133734695446893,121.43256956502103
龙州路上中西路(公交站),865路,徐汇区,上海市,交通设施服务;公交车站;公交车站相关,31.137185777274485,121.4198850289873
上中西路天等路(公交站),131路;731路;804路,徐汇区,上海市,交通设施服务;公交车站;公交车站相关,31.13643939788022,121.42108455891959
梅陇路虹梅南路(公交站),326路;50路区间;731路;804路,徐汇区,上海市,交通设施服务;公交车站;公交车站相关,31.138981627806782,121.4107512081463
上中西路龙州路(公交站),131路;156路;180路;56路;755路;闵行20路,徐汇区,上海市,交通设施服务;公交车站;公交车站相关,31.13563494593847,121.41920536665913
嘉川路虹梅南路(公交站),729路,徐汇区,上海市,交通设施服务;公交车站;公交车站相关,31.136463617303146,121.41331641282696
上中西路凌云路(公交站),156路;180路;218路;720路;755路;闵行20路,徐汇区,上海市,交通设施服务;公交车站;公交车站相关,31.13462174383819,121.41612715083335
凌云路上中西路(公交站),157路;218路;50路区间;867路,徐汇区,上海市,交通设施服务;公交车站;公交车站相关,31.134025117809486,121.41736447034644
华泾路老沪闵路(公交站),1220路;714路;718路;873路,徐汇区,上海市,交通设施服务;公交车站;公交车站相关,31.11872326321404,121.4359493406269
老沪闵路华泾路(公交站),707路;714路;718路,徐汇区,上海市,交通设施服务;公交车站;公交车站相关,31.11792375118096,121.43287649644745
陕西南路淮海中路(公交站),104路;146路外圈;24路;301路;304路;41路;955路,徐汇区,上海市,交通设施服务;公交车站;公交车站相关,31.219159614436204,121.45425671508995
淮海中路陕西南路(公交站),167路;320路;42路;911路;920路;926路,徐汇区,上海市,交通设施服务;公交车站;公交车站相关,31.218144375058348,121.45307855254143
陕西南路建国西路(公交站),146路外圈;17路;301路;41路;786路;96路,徐汇区,上海市,交通设施服务;公交车站;公交车站相关,31.20750607686428,121.45757113123413
复兴中路淮海中路(公交站),96路,徐汇区,上海市,交通设施服务;公交车站;公交车站相关,31.212435738623963,121.44453511370274
肇嘉浜路大木桥路(公交站),104路;146路外圈;17路;205路;218路;301路;303路;327路;41路;43路;45路;786路;864路;985路;隧道夜宵一线,徐汇区,上海市,交通设施服务;公交车站;公交车站相关,31.205113946911734,121.45868057373377
襄阳南路建国西路(公交站),327路;42路;45路,徐汇区,上海市,交通设施服务;公交车站;公交车站相关,31.20565281957972,121.45370735606885
宛平南路肇嘉浜路(公交站),167路;864路,徐汇区,上海市,交通设施服务;公交车站;公交车站相关,31.19793530601503,121.44065943369125
中山南二路船厂路(公交站),104路;144路;41路;734路;933路;万周专线;大桥六线,徐汇区,上海市,交通设施服务;公交车站;公交车站相关,31.19029467607079,121.45512362239911
东安路中山南二路(公交站),301路;49路,徐汇区,上海市,交通设施服务;公交车站;公交车站相关,31.189956341637515,121.45142149856854
中山南二路东安路(公交站),104路;1222路;144路;41路;49路;734路;933路;万周专线;大桥六线,徐汇区,上海市,交通设施服务;公交车站;公交车站相关,31.189317243902927,121.45300483258438
南丹东路天钥桥路(公交站),218路;89路;932路;隧道二线;隧道夜宵一线,徐汇区,上海市,交通设施服务;公交车站;公交车站相关,31.19235650320332,121.4392608579772
天钥桥路南丹东路(公交站),15路;315路;703路;733路;89路,徐汇区,上海市,交通设施服务;公交车站;公交车站相关,31.190628013934862,121.4373650061219
南丹东路漕溪北路(公交站),342路;56路;隧道二线,徐汇区,上海市,交通设施服务;公交车站;公交车站相关,31.191106600384575,121.43426077799354
双峰路中山南二路(公交站),44路,徐汇区,上海市,交通设施服务;公交车站;公交车站相关,31.184528208036383,121.44391104004949
宛平南路龙华港桥(公交站),1222路,徐汇区,上海市,交通设施服务;公交车站;公交车站相关,31.18125246513005,121.45086376370168
漕溪北路蒲汇塘路(公交站),703路,徐汇区,上海市,交通设施服务;公交车站;公交车站相关,31.18759371726544,121.43258293078594
中山西路漕溪北路(公交站),138路;721路;808路;87路;89路,徐汇区,上海市,交通设施服务;公交车站;公交车站相关,31.18268496706547,121.4297293135104
龙华西路天钥桥路(公交站),733路;809路,徐汇区,上海市,交通设施服务;公交车站;公交车站相关,31.175439830658945,121.44290246417471
上海南站(南广场)(公交站),144路;315路;867路;973路;上嘉线;上奉专线;上青线;南南线;南川线,徐汇区,上海市,交通设施服务;公交车站;公交车站相关,31.15463128408713,121.42820321320926
龙腾大道喜泰支路(公交站),浦西滨江1路,徐汇区,上海市,交通设施服务;公交车站;公交车站相关,31.14717405121411,121.4499332475168
上海南站(北广场)(公交站),(停运)341路;1252路;180路;180路(紫竹)大站车;301路;303路;729路;747路;763路;虹桥枢纽1路,徐汇区,上海市,交通设施服务;公交车站;公交车站相关,31.15453102150365,121.42129625728526
钦州南路虹漕南路(公交站),43路;703B路;725路;732路;804路;830路;909路;93路,徐汇区,上海市,交通设施服务;公交车站;公交车站相关,31.158900627251573,121.40990189809203
虹漕南路钦州南路(公交站),122路;703B路;725路;732路;830路,徐汇区,上海市,交通设施服务;公交车站;公交车站相关,31.157513103501007,121.40943671699492
上中西路老沪闵路(公交站),131路;180路;50路;731路;755路;闵行20路,徐汇区,上海市,交通设施服务;公交车站;公交车站相关,31.138185320181805,121.42693662681289
安福路乌鲁木齐中路(公交站),93路,徐汇区,上海市,交通设施服务;公交车站;公交车站相关,31.21638184658205,121.4414455972125
乌鲁木齐中路安福路(公交站),93路,徐汇区,上海市,交通设施服务;公交车站;公交车站相关,31.21699517669063,121.44016870252375
乌鲁木齐南路东平路(公交站),93路,徐汇区,上海市,交通设施服务;公交车站;公交车站相关,31.210351290030832,121.44329636646239
乌鲁木齐南路衡山路(公交站),49路;96路,徐汇区,上海市,交通设施服务;公交车站;公交车站相关,31.208301392447318,121.44386287393878
大木桥路中山南二路(公交站),104路;327路;45路;572路;隧道二线,徐汇区,上海市,交通设施服务;公交车站;公交车站相关,31.195373086574687,121.45963823763245
中山南二路大木桥路(公交站),144路;327路;41路;45路;572路;734路;933路;万周专线;大桥六线;隧道一线;隧道一线区间;隧道二线;隧道夜宵一线,徐汇区,上海市,交通设施服务;公交车站;公交车站相关,31.193383690172254,121.45948495385083
小木桥路中山南二路(公交站),104路;45路;隧道二线,徐汇区,上海市,交通设施服务;公交车站;公交车站相关,31.19371287373479,121.45676097996679
中山南二路宛平南路(公交站),104路;144路;301路;49路;大桥六线,徐汇区,上海市,交通设施服务;公交车站;公交车站相关,31.18640614120069,121.44485111782359
中山南二路天钥桥路(公交站),144路;49路;87路,徐汇区,上海市,交通设施服务;公交车站;公交车站相关,31.181040710601515,121.43844409186926
天钥桥路中山南二路(公交站),104路;166路;178路大站车;301路;326路;342路;56路;714路;733路;770路;864路;932路;徐闵夜宵专线,徐汇区,上海市,交通设施服务;公交车站;公交车站相关,31.179983211410853,121.44063092142456
龙水南路天钥桥南路(公交站),56路区间;733路;932路,徐汇区,上海市,交通设施服务;公交车站;公交车站相关,31.15524274802871,121.44945029647717
龙吴路龙瑞路(港口)(公交站),178路;178路大站车;342路;56路;714路;956路;958路,徐汇区,上海市,交通设施服务;公交车站;公交车站相关,31.1407499210915,121.44734818260761
龙吴路景联路(关港)(公交站),178路;178路大站车;956路,徐汇区,上海市,交通设施服务;公交车站;公交车站相关,31.10350076825641,121.44993701022489
复兴中路乌鲁木齐中路(公交站),96路,徐汇区,上海市,交通设施服务;公交车站;公交车站相关,31.21240811200897,121.44421435169153
乌鲁木齐中路复兴中路(公交站),93路,徐汇区,上海市,交通设施服务;公交车站;公交车站相关,31.21292451406895,121.4419811096306
淮海中路乌鲁木齐中路(公交站),26路;320路;911路;920路,徐汇区,上海市,交通设施服务;公交车站;公交车站相关,31.21103559354918,121.44154528433255
建国西路乌鲁木齐南路(公交站),42路,徐汇区,上海市,交通设施服务;公交车站;公交车站相关,31.203810909025208,121.44453586024812
乌鲁木齐南路建国西路(公交站),49路;927路,徐汇区,上海市,交通设施服务;公交车站;公交车站相关,31.202737331670562,121.44547722158967
枫林路斜土路(上客站)(公交站),171路,徐汇区,上海市,交通设施服务;公交车站;公交车站相关,31.198665614934914,121.45078505577197
龙华(龙华有线电视站)(公交站),167路,徐汇区,上海市,交通设施服务;公交车站;公交车站相关,31.17333749676326,121.44763610034784
龙吴路龙瑞路(招呼站)(公交站),上奉专线,徐汇区,上海市,交通设施服务;公交车站;公交车站相关,31.140611092111367,121.44739431023811
肇嘉浜路天平路(徐家汇)(公交站),171路;303路;43路;50路;572路;72路;824路;836路;927路;93路;956路;957路;985路;徐川专线;徐闵夜宵专线;徐闵线,徐汇区,上海市,交通设施服务;公交车站;公交车站相关,31.1972238531978,121.43742556085138
辛耕路天钥桥路(徐家汇)(公交站),178路大站车,徐汇区,上海市,交通设施服务;公交车站;公交车站相关,31.19430208061561,121.43787675200655
天钥桥路辛耕路(徐家汇)(公交站),122路;15路;315路;44路;572路;72路;732路;770路;864路;927路;958路;徐闵夜宵专线;隧道夜宵一线,徐汇区,上海市,交通设施服务;公交车站;公交车站相关,31.194488535090045,121.437037998971
丰谷路机场西路(招呼站)(公交站),864路,徐汇区,上海市,交通设施服务;公交车站;公交车站相关,31.170980823245063,121.4490970282434
田林东路钦州路(招呼站)(公交站),927路,徐汇区,上海市,交通设施服务;公交车站;公交车站相关,31.17512770238041,121.42341827153811
钦州北路桂林路(招呼站)(公交站),927路,徐汇区,上海市,交通设施服务;公交车站;公交车站相关,31.182580437793753,121.40780056872448
沪闵路柳州路(上海南站)(公交站),301路,徐汇区,上海市,交通设施服务;公交车站;公交车站相关,31.15801665623998,121.42352690475674
华东理工大学(老沪闵路)(公交站),111路;156路;157路;192路;729路;867路;973路,徐汇区,上海市,交通设施服务;公交车站;公交车站相关,31.142348020842615,121.42529277960908
老沪闵路上中路(光华园)(公交站),111路,徐汇区,上海市,交通设施服务;公交车站;公交车站相关,31.1408845702901,121.42669902522483
上海南站(北广场)(下客站)(公交站),180路(紫竹)大站车,徐汇区,上海市,交通设施服务;公交车站;公交车站相关,31.15484234586365,121.42175481551024
中山南二路天钥桥路(招呼站)(公交站),956路,徐汇区,上海市,交通设施服务;公交车站;公交车站相关,31.18091647572987,121.4382757469706
仙霞路水城路(公交站),827路;836路;856路;88路,长宁区,上海市,交通设施服务;公交车站;公交车站相关,31.207918490831712,121.38438482477183
中山公园地铁站(公交站),13路;519路;67路;776路/776路高峰定班车;88路;946路;96路,长宁区,上海市,交通设施服务;公交车站;公交车站相关,31.221714582260216,121.41194990166501
天山路威宁路(公交站),141路;158路;190路;311路;316路/316路(夜宵线);739路;808路;855路,长宁区,上海市,交通设施服务;公交车站;公交车站相关,31.21743588857043,121.3785525943875
愚园路江苏路(公交站),20路;330路;825路,长宁区,上海市,交通设施服务;公交车站;公交车站相关,31.221770344368547,121.42788387858357
江苏路愚园路(公交站),01线;323路;44路;62路;923路,长宁区,上海市,交通设施服务;公交车站;公交车站相关,31.22307303107842,121.42579853025433
曹家渡(公交站),316路/316路(夜宵线);319路;321路;327路;45路;838路;951路,长宁区,上海市,交通设施服务;公交车站;公交车站相关,31.230257219012856,121.42288676120555
江苏路(公交站),71路;71路区间,长宁区,上海市,交通设施服务;公交车站;公交车站相关,31.21534242415268,121.42715127478634
华山路江苏路(公交站),113路;138路;328路;48路;923路,长宁区,上海市,交通设施服务;公交车站;公交车站相关,31.212258572390024,121.42913074334284
长宁路江苏路(公交站),13路;316路/316路(夜宵线);54路;737路;765路;941路,长宁区,上海市,交通设施服务;公交车站;公交车站相关,31.225207903633954,121.42228339601238
番禺路(公交站),71路;71路区间,长宁区,上海市,交通设施服务;公交车站;公交车站相关,31.213217721158696,121.42499620047195
愚园路安西路(公交站),20路;330路;825路,长宁区,上海市,交通设施服务;公交车站;公交车站相关,31.220729016605265,121.42135959099903
华山路湖南路(公交站),113路;138路;328路;48路;923路,长宁区,上海市,交通设施服务;公交车站;公交车站相关,31.207831282440267,121.42882562109175
武夷路定西路(公交站),96路,长宁区,上海市,交通设施服务;公交车站;公交车站相关,31.215263451456977,121.42120687286125
华阳路长宁路(公交站),20路,长宁区,上海市,交通设施服务;公交车站;公交车站相关,31.22423570583051,121.41869308940963
愚园路定西路(公交站),13路;20路;330路;825路,长宁区,上海市,交通设施服务;公交车站;公交车站相关,31.220755711237544,121.41800662962122
番禺路平武路(公交站),76路,长宁区,上海市,交通设施服务;公交车站;公交车站相关,31.208073800378763,121.42466817192188
中山公园(公交站),20路;316路/316路(夜宵线);519路;54路;737路;765路;825路;941路;947路,长宁区,上海市,交通设施服务;公交车站;公交车站相关,31.225368377872453,121.41415641421052
定西路武夷路(公交站),776路/776路高峰定班车;946路,长宁区,上海市,交通设施服务;公交车站;公交车站相关,31.213889553243153,121.41863292121319
新华路番禺路(公交站),48路;911路;946路,长宁区,上海市,交通设施服务;公交车站;公交车站相关,31.20397299299418,121.42483677140739
番禺路新华路(公交站),76路,长宁区,上海市,交通设施服务;公交车站;公交车站相关,31.202807063533047,121.42524947481401
定西路(公交站),1250路(71路支线1);71路;71路区间,长宁区,上海市,交通设施服务;公交车站;公交车站相关,31.21144532968479,121.41820565764799
安化路定西路(公交站),947路,长宁区,上海市,交通设施服务;公交车站;公交车站相关,31.217291966870288,121.41518105517629
武夷路凯旋路(公交站),96路,长宁区,上海市,交通设施服务;公交车站;公交车站相关,31.214623706352196,121.41448564453609
香花桥(公交站),48路;911路;946路,长宁区,上海市,交通设施服务;公交车站;公交车站相关,31.2056150083136,121.42014640391754
凯旋路汇川路(公交站),20路,长宁区,上海市,交通设施服务;公交车站;公交车站相关,31.22206945755565,121.41035470909009
凯旋路武夷路(公交站),96路,长宁区,上海市,交通设施服务;公交车站;公交车站相关,31.21545405152549,121.41271405110808
新华路定西路(公交站),141路,长宁区,上海市,交通设施服务;公交车站;公交车站相关,31.206542855379734,121.41726707196025
安顺路定西路(公交站),44路,长宁区,上海市,交通设施服务;公交车站;公交车站相关,31.20268451964958,121.41921455855788
安顺路凯旋路(公交站),141路;48路;911路,长宁区,上海市,交通设施服务;公交车站;公交车站相关,31.20357157409054,121.41641945654679
凯旋路(公交站),1250路(71路支线1);1251路(71路支线2);71路;71路区间,长宁区,上海市,交通设施服务;公交车站;公交车站相关,31.2099356725427,121.41109728913536
凯旋路虹桥路(公交站),141路;149路,长宁区,上海市,交通设施服务;公交车站;公交车站相关,31.200601461871585,121.41573403609316
遵义路长宁路(公交站),737路;88路,长宁区,上海市,交通设施服务;公交车站;公交车站相关,31.218227633756573,121.4041258075286
安顺路长顺路(公交站),149路;48路;911路,长宁区,上海市,交通设施服务;公交车站;公交车站相关,31.2024641381885,121.41082974716241
长宁路遵义路(公交站),316路/316路(夜宵线);54路;825路,长宁区,上海市,交通设施服务;公交车站;公交车站相关,31.219210722209397,121.40229416291521
虹桥路长顺路(公交站),113路;141路;149路;320路;72路;754路;827路;836路;855路,长宁区,上海市,交通设施服务;公交车站;公交车站相关,31.19769437544372,121.41374646202698
遵义路天山路(公交站),737路;88路,长宁区,上海市,交通设施服务;公交车站;公交车站相关,31.21304385608506,121.40317294614171
天山路遵义路(公交站),1250路(71路支线1);141路;190路;311路;519路;829路;941路,长宁区,上海市,交通设施服务;公交车站;公交车站相关,31.21272463458464,121.40129549801571
长宁路锦屏路(公交站),316路/316路(夜宵线);54路;825路,长宁区,上海市,交通设施服务;公交车站;公交车站相关,31.220125829140912,121.39784546209519
遵义路仙霞路(公交站),141路;72路;808路;88路,长宁区,上海市,交通设施服务;公交车站;公交车站相关,31.20759017938216,121.40172303725757
虹桥开发区(公交站),328路;57路;911路,长宁区,上海市,交通设施服务;公交车站;公交车站相关,31.205236649610463,121.40327965873448
伊犁路安顺路(公交站),72路;808路;855路;911路,长宁区,上海市,交通设施服务;公交车站;公交车站相关,31.203187586585127,121.40302876136276
虹桥路宋园路(公交站),149路;320路;72路;808路;855路,长宁区,上海市,交通设施服务;公交车站;公交车站相关,31.19846090381326,121.40628741730524
仙霞路遵义路(公交站),1251路(71路支线2);309路;69路;72路;808路;855路;944路,长宁区,上海市,交通设施服务;公交车站;公交车站相关,31.207316116626682,121.40039480684996
长宁路古北路(公交站),316路/316路(夜宵线);54路;825路,长宁区,上海市,交通设施服务;公交车站;公交车站相关,31.2198411231804,121.39503062743697
姚虹路虹桥路(公交站),149路,长宁区,上海市,交通设施服务;公交车站;公交车站相关,31.197863795716486,121.40515797408118
古北路长宁路(公交站),316路/316路(夜宵线);54路;825路,长宁区,上海市,交通设施服务;公交车站;公交车站相关,31.218149034966533,121.39422189089663
古北路天山路(公交站),316路/316路(夜宵线);54路;757路;825路;944路;普陀社区巴士,长宁区,上海市,交通设施服务;公交车站;公交车站相关,31.216173859586046,121.39507694144045
茅台路古北路(公交站),72路;855路;88路,长宁区,上海市,交通设施服务;公交车站;公交车站相关,31.21169287486049,121.39665620630237
古北路茅台路(公交站),158路;944路,长宁区,上海市,交通设施服务;公交车站;公交车站相关,31.21263547044979,121.39590116816274
虹桥路伊犁路(公交站),320路;827路;836路;上青线,长宁区,上海市,交通设施服务;公交车站;公交车站相关,31.19931554315696,121.40328817691177
娄山关路(公交站),71路;71路区间,长宁区,上海市,交通设施服务;公交车站;公交车站相关,31.203724797234777,121.399785034004
天山路古北路(公交站),190路;311路;808路,长宁区,上海市,交通设施服务;公交车站;公交车站相关,31.214425938089022,121.39345935541321
古北路仙霞路(公交站),158路;69路,长宁区,上海市,交通设施服务;公交车站;公交车站相关,31.208309581124897,121.39558057267394
虹桥路古北路(公交站),320路;827路;836路,长宁区,上海市,交通设施服务;公交车站;公交车站相关,31.200775195212678,121.3992442312614
姚虹路古羊路(公交站),149路,长宁区,上海市,交通设施服务;公交车站;公交车站相关,31.1938735399631,121.40444104225763
古羊路姚虹路(公交站),虹桥镇社区巴士,长宁区,上海市,交通设施服务;公交车站;公交车站相关,31.193388361889312,121.40284656152203
古北路兴义路(公交站),158路;69路;836路,长宁区,上海市,交通设施服务;公交车站;公交车站相关,31.206217633879746,121.39519179550005
仙霞路古北路(公交站),1251路(71路支线2);519路;737路;836路;855路;88路;944路,长宁区,上海市,交通设施服务;公交车站;公交车站相关,31.207694135547733,121.39368189806318
古羊路伊犁路(公交站),149路;虹桥社区巴士内环;虹桥社区巴士外环;虹桥镇社区巴士,长宁区,上海市,交通设施服务;公交车站;公交车站相关,31.193434108790978,121.40170126495786
茅台路水城路(公交站),1250路(71路支线1);829路;836路;88路,长宁区,上海市,交通设施服务;公交车站;公交车站相关,31.211980088698162,121.38723680715577
古羊路古北路(公交站),149路;虹桥社区巴士内环;虹桥社区巴士外环;虹桥镇社区巴士,长宁区,上海市,交通设施服务;公交车站;公交车站相关,31.193662674266168,121.39663477763217
虹古路水城路(公交站),1217路,长宁区,上海市,交通设施服务;公交车站;公交车站相关,31.205647522815415,121.3887316450891
水城路茅台路(公交站),1251路(71路支线2);519路;700路;72路;757路;827路;856路;941路;944路,长宁区,上海市,交通设施服务;公交车站;公交车站相关,31.21125785215633,121.38634434841485
虹桥路水城路(公交站),328路;57路;69路;911路,长宁区,上海市,交通设施服务;公交车站;公交车站相关,31.202206817639098,121.38977651141997
天山路天中路(公交站),1250路(71路支线1);141路;158路;190路;311路;316路/316路(夜宵线);54路;72路;825路;829路;855路;普陀社区巴士,长宁区,上海市,交通设施服务;公交车站;公交车站相关,31.216564801071133,121.38359160357014
水城路仙霞路(公交站),1217路;1251路(71路支线2);519路;700路;757路;827路;856路;941路;944路,长宁区,上海市,交通设施服务;公交车站;公交车站相关,31.2065260811543,121.38645969666827
水城路虹桥路(公交站),519路;700路;757路;827路;941路,长宁区,上海市,交通设施服务;公交车站;公交车站相关,31.203162328385034,121.3872985437339
水城南路(公交站),71路;71路区间,长宁区,上海市,交通设施服务;公交车站;公交车站相关,31.19884823015117,121.38777967923068
古羊路水城路(公交站),69路,长宁区,上海市,交通设施服务;公交车站;公交车站相关,31.19391352743099,121.39093681619953
茅台路威宁路(公交站),1250路(71路支线1);72路;827路;829路;836路;88路,长宁区,上海市,交通设施服务;公交车站;公交车站相关,31.21250111624902,121.38144254842364
虹古路安龙路(公交站),856路,长宁区,上海市,交通设施服务;公交车站;公交车站相关,31.205893279101794,121.38302093456781
威宁路仙霞路(公交站),54路;825路;836路;88路,长宁区,上海市,交通设施服务;公交车站;公交车站相关,31.211400852843795,121.37975004801271
虹古路北虹路(公交站),1217路,长宁区,上海市,交通设施服务;公交车站;公交车站相关,31.205543268911587,121.38174791530615
虹桥路虹许路(公交站),328路;519路;57路;757路;911路;941路,长宁区,上海市,交通设施服务;公交车站;公交车站相关,31.200073423083076,121.38418763757826
双流路天山路(公交站),1250路(71路支线1);316路/316路(夜宵线),长宁区,上海市,交通设施服务;公交车站;公交车站相关,31.21632853265931,121.37603015880313
仙霞路威宁路(公交站),54路;825路;827路;836路;88路,长宁区,上海市,交通设施服务;公交车站;公交车站相关,31.209276524094538,121.37765415176
北新泾汽车站(公交站),880路,长宁区,上海市,交通设施服务;公交车站;公交车站相关,31.22038978882325,121.37266652550367
天山路哈密路(公交站),141路;158路;190路;311路;739路;808路;855路,长宁区,上海市,交通设施服务;公交车站;公交车站相关,31.217765705708338,121.37401720228141
虹许路(公交站),71路;71路区间,长宁区,上海市,交通设施服务;公交车站;公交车站相关,31.195554493161914,121.38277801039423
茅台路北虹路(公交站),827路,长宁区,上海市,交通设施服务;公交车站;公交车站相关,31.21269353446696,121.37464295118943
北新泾(公交站),190路;196路;311路;551路;91路,长宁区,上海市,交通设施服务;公交车站;公交车站相关,31.220458789387422,121.37263355832432
北虹路天山路(公交站),827路,长宁区,上海市,交通设施服务;公交车站;公交车站相关,31.216791334040604,121.37184581880692
仙霞路青溪路(公交站),1217路;54路;739路;825路;836路;88路,长宁区,上海市,交通设施服务;公交车站;公交车站相关,31.20959060377187,121.37403389536601
北虹路茅台路(公交站),739路;827路,长宁区,上海市,交通设施服务;公交车站;公交车站相关,31.213502411099732,121.37232652774455
北虹路新渔路(公交站),739路;807路;827路,长宁区,上海市,交通设施服务;公交车站;公交车站相关,31.21666585398951,121.37140436831848
虹梅路(公交站),71路;71路区间,长宁区,上海市,交通设施服务;公交车站;公交车站相关,31.194060514160903,121.37948478978599
虹古路青溪路(公交站),1217路,长宁区,上海市,交通设施服务;公交车站;公交车站相关,31.207076853913172,121.3729743241466
哈密路新渔路(公交站),196路;807路,长宁区,上海市,交通设施服务;公交车站;公交车站相关,31.215435456449143,121.37045166476922
虹桥路虹梅路(公交站),1217路;328路;519路;57路;809路;865路;911路;941路,长宁区,上海市,交通设施服务;公交车站;公交车站相关,31.1970952080355,121.37677107935495
北翟路剑河路(公交站),190路,长宁区,上海市,交通设施服务;公交车站;公交车站相关,31.223909615280252,121.36597799100447
青溪路淮阴路(公交站),1217路,长宁区,上海市,交通设施服务;公交车站;公交车站相关,31.206046523407807,121.37087195263793
仙霞路哈密路(公交站),54路;825路;836路;88路,长宁区,上海市,交通设施服务;公交车站;公交车站相关,31.209917225130575,121.3694314589951
马家桥(公交站),807路,长宁区,上海市,交通设施服务;公交车站;公交车站相关,31.212113125300593,121.36858538889663
哈密路仙霞路(公交站),196路;739路;807路,长宁区,上海市,交通设施服务;公交车站;公交车站相关,31.20946204558177,121.36634572045554
新泾五村(公交站),216路,长宁区,上海市,交通设施服务;公交车站;公交车站相关,31.22164677566092,121.36277099656988
金钟路剑河路(公交站),190路;808路,长宁区,上海市,交通设施服务;公交车站;公交车站相关,31.221696421262415,121.36226877844312
剑河路泉口路(公交站),196路;54路;855路;91路,长宁区,上海市,交通设施服务;公交车站;公交车站相关,31.216094635720363,121.36335857075956
剑河路(公交站),71路;71路区间,长宁区,上海市,交通设施服务;公交车站;公交车站相关,31.19151788629102,121.37258014001067
剑河路可乐路(公交站),91路,长宁区,上海市,交通设施服务;公交车站;公交车站相关,31.206066032062687,121.36525659206926
泉口路剑河路(公交站),54路;855路,长宁区,上海市,交通设施服务;公交车站;公交车站相关,31.215330376998516,121.36157642995678
剑河路平溪路(公交站),1217路;91路,长宁区,上海市,交通设施服务;公交车站;公交车站相关,31.19693203866431,121.36727549949244
程家桥(公交站),196路;865路;上青线,长宁区,上海市,交通设施服务;公交车站;公交车站相关,31.19288615403153,121.36889964156912
虹桥路程家桥(公交站),328路;519路;57路;809路;911路;91路;941路,长宁区,上海市,交通设施服务;公交车站;公交车站相关,31.192869223646326,121.36884571476546
平塘路泉口路(公交站),836路,长宁区,上海市,交通设施服务;公交车站;公交车站相关,31.216476276666572,121.35980920655959
剑河路青溪路(公交站),91路,长宁区,上海市,交通设施服务;公交车站;公交车站相关,31.199363093603072,121.36542492828747
平塘路甘溪路(公交站),54路;836路;855路,长宁区,上海市,交通设施服务;公交车站;公交车站相关,31.213225401921395,121.36011398560552
北翟路屈家桥(公交站),880路,长宁区,上海市,交通设施服务;公交车站;公交车站相关,31.225888989127448,121.35560363692133
哈密路中新泾(公交站),196路;739路;807路,长宁区,上海市,交通设施服务;公交车站;公交车站相关,31.204022478148097,121.36183599909741
泉口路淞虹路(公交站),855路,长宁区,上海市,交通设施服务;公交车站;公交车站相关,31.215921763182696,121.35825486907387
淞虹路北翟路(公交站),1205路;121路;190路;808路;836路;876路,长宁区,上海市,交通设施服务;公交车站;公交车站相关,31.22308859644757,121.35673886982357
北翟路淞虹路(公交站),190路;836路;新泾1路,长宁区,上海市,交通设施服务;公交车站;公交车站相关,31.225883119229586,121.35551978743882
淞虹路可乐路(公交站),新泾1路;新泾1路(休息日);新泾1路(区间)临,长宁区,上海市,交通设施服务;公交车站;公交车站相关,31.2073154535432,121.35926091572931
哈密路青溪路(公交站),196路;739路;807路;新泾1路;新泾1路(休息日);新泾1路(区间)临,长宁区,上海市,交通设施服务;公交车站;公交车站相关,31.197634798659227,121.36319243091236
淞虹路甘溪路(公交站),121路;新泾1路;新泾1路(休息日);新泾1路(区间)临,长宁区,上海市,交通设施服务;公交车站;公交车站相关,31.213903546979278,121.35701418593317
哈密路虹桥路(公交站),739路;807路;新泾1路;新泾1路(休息日);新泾1路(区间)临,长宁区,上海市,交通设施服务;公交车站;公交车站相关,31.193087418677152,121.36524174199192
泉口路福泉路(公交站),1221路(高峰线),长宁区,上海市,交通设施服务;公交车站;公交车站相关,31.216613460681142,121.35488872790093
福泉路金钟路(公交站),(停运)74路区间;74路,长宁区,上海市,交通设施服务;公交车站;公交车站相关,31.224679965465178,121.35339575938771
福泉路泉口路(公交站),141路;141路区间,长宁区,上海市,交通设施服务;公交车站;公交车站相关,31.21737959217203,121.35392142410598
临时站(公交站),328路,长宁区,上海市,交通设施服务;公交车站;公交车站相关,31.191780905383414,121.36080871238124
虹井路(公交站),71路;71路区间,长宁区,上海市,交通设施服务;公交车站;公交车站相关,31.18893942373039,121.36449620682659
福泉路甘溪路(公交站),141路;141路区间,长宁区,上海市,交通设施服务;公交车站;公交车站相关,31.21388958263842,121.35435593195402
中泾路新潮路(公交站),88路;新泾1路;新泾1路(休息日),长宁区,上海市,交通设施服务;公交车站;公交车站相关,31.20211393761819,121.35790566611612
新泾路福泉路(公交站),新泾1路;新泾1路(区间)临,长宁区,上海市,交通设施服务;公交车站;公交车站相关,31.205901231821517,121.35645885459346
泉口路协和路(公交站),1221路(高峰线),长宁区,上海市,交通设施服务;公交车站;公交车站相关,31.21646966302161,121.35287843312423
甘溪路协和路(公交站),121路,长宁区,上海市,交通设施服务;公交车站;公交车站相关,31.21356480732495,121.35303239840609
福泉路新泾路(公交站),88路;新泾1路;新泾1路(休息日),长宁区,上海市,交通设施服务;公交车站;公交车站相关,31.205629915485062,121.35543070547925
新潮路福泉路(公交站),88路;新泾1路;新泾1路(休息日),长宁区,上海市,交通设施服务;公交车站;公交车站相关,31.2035851715036,121.35591801294677
金浜路福泉路(公交站),88路;新泾1路;新泾1路(区间)临,长宁区,上海市,交通设施服务;公交车站;公交车站相关,31.200312627546342,121.35667995087734
上海动物园(公交站),1207路;196路;328路;57路;721路;809路;865路,长宁区,上海市,交通设施服务;公交车站;公交车站相关,31.191767975264927,121.36076278809163
协和路金钟路(公交站),(停运)74路区间;74路;新泾1路;新泾1路区间,长宁区,上海市,交通设施服务;公交车站;公交车站相关,31.224168480142637,121.35011302347745
协和路泉口路(公交站),1221路(高峰线);176路;825路,长宁区,上海市,交通设施服务;公交车站;公交车站相关,31.217642331206306,121.35148495603165
协和路北翟路(公交站),(停运)74路区间;74路;安虹线;新泾1路;新泾1路区间,长宁区,上海市,交通设施服务;公交车站;公交车站相关,31.22426960648937,121.35000721979159
协和路通协路(公交站),(停运)74路区间;74路;新泾1路,长宁区,上海市,交通设施服务;公交车站;公交车站相关,31.228954257646283,121.34889498600282
协和路临虹路(公交站),(停运)74路区间;74路;新泾1路;新泾1路区间,长宁区,上海市,交通设施服务;公交车站;公交车站相关,31.232019021847098,121.34818612036362
北翟路协和路(公交站),(停运)74路区间;190路;74路;836路;安虹线,长宁区,上海市,交通设施服务;公交车站;公交车站相关,31.22581899546205,121.34813376197658
广顺路定威路(公交站),750路;825路,长宁区,上海市,交通设施服务;公交车站;公交车站相关,31.217196992356232,121.34877424328306
通协路金轮路(公交站),新泾1路区间,长宁区,上海市,交通设施服务;公交车站;公交车站相关,31.22859136156821,121.34715148221214
临华路协和路(公交站),新泾1路;新泾1路区间,长宁区,上海市,交通设施服务;公交车站;公交车站相关,31.23779774959476,121.34677743620374
临虹路金轮路(公交站),新泾1路;新泾1路区间,长宁区,上海市,交通设施服务;公交车站;公交车站相关,31.232386068060688,121.34513324859063
联虹路迎乐路(公交站),176路;941路,长宁区,上海市,交通设施服务;公交车站;公交车站相关,31.206976926033956,121.34523424304075
汤更浪(公交站),(停运)74路区间;190路;74路;836路,长宁区,上海市,交通设施服务;公交车站;公交车站相关,31.225247662518225,121.34157828010642
机场广场(公交站),941路,长宁区,上海市,交通设施服务;公交车站;公交车站相关,31.19018674915939,121.35145639111846
机场新村(公交站),1207路;807路,长宁区,上海市,交通设施服务;公交车站;公交车站相关,31.187309805184743,121.3504595493709
延安西路江苏路(公交站),311路;57路;76路,长宁区,上海市,交通设施服务;公交车站;公交车站相关,31.216997853828442,121.4302231831596
华山路复兴西路(公交站),113路;328路;48路;96路,长宁区,上海市,交通设施服务;公交车站;公交车站相关,31.21307964089403,121.4315308164596
江苏路延安西路(公交站),01线;138路;323路;44路;62路;923路,长宁区,上海市,交通设施服务;公交车站;公交车站相关,31.218271573086724,121.42756367114569
武夷路延安西路(公交站),96路,长宁区,上海市,交通设施服务;公交车站;公交车站相关,31.215472054511956,121.42533249762175
万航渡路长寿路(公交站),966路,长宁区,上海市,交通设施服务;公交车站;公交车站相关,31.23120721828491,121.42145780498613
江苏北路长宁路(公交站),136路;323路;44路;62路;923路,长宁区,上海市,交通设施服务;公交车站;公交车站相关,31.226988156345335,121.42143514293427
延安西路番禺路(公交站),311路;44路;57路,长宁区,上海市,交通设施服务;公交车站;公交车站相关,31.214088084690044,121.42563106022202
华山路淮海西路(公交站),113路;138路;328路;48路;923路,长宁区,上海市,交通设施服务;公交车站;公交车站相关,31.206002244985438,121.42959706865709
番禺路延安西路(公交站),76路,长宁区,上海市,交通设施服务;公交车站;公交车站相关,31.211353357749132,121.42478305296633
延安西路定西路(公交站),311路;57路,长宁区,上海市,交通设施服务;公交车站;公交车站相关,31.211904455896473,121.41962623768076
淮海西路番禺路(公交站),113路;138路;26路;320路;328路;572路;72路,长宁区,上海市,交通设施服务;公交车站;公交车站相关,31.20252304748839,121.42671671103278
定西路法华镇路(公交站),44路;946路,长宁区,上海市,交通设施服务;公交车站;公交车站相关,31.21050272195871,121.4192058690866
定西路延安西路(公交站),44路;946路,长宁区,上海市,交通设施服务;公交车站;公交车站相关,31.21002003542157,121.4192900084559
凯旋路延安西路(公交站),190路,长宁区,上海市,交通设施服务;公交车站;公交车站相关,31.212834223136667,121.41259218058673
延安西路凯旋路(公交站),1250路(71路支线1);311路;57路;946路,长宁区,上海市,交通设施服务;公交车站;公交车站相关,31.210444005062914,121.4135161550289
长宁路中山西路(公交站),316路/316路(夜宵线);519路;54路;67路;737路;765路;776路/776路高峰定班车;825路;88路,长宁区,上海市,交通设施服务;公交车站;公交车站相关,31.21922980124536,121.40843874063175
武夷路中山西路(公交站),190路,长宁区,上海市,交通设施服务;公交车站;公交车站相关,31.21453681714064,121.40996610247797
中山西路长宁路(公交站),224路;309路;519路;69路;754路;829路;856路;909路,长宁区,上海市,交通设施服务;公交车站;公交车站相关,31.221329845792663,121.4061863790031
中山西路天山路(公交站),190路;224路;252路;309路;519路;69路;754路;776路/776路高峰定班车;829路;856路;909路;941路,长宁区,上海市,交通设施服务;公交车站;公交车站相关,31.213195511690227,121.40808806477132
淮海西路凯旋路(公交站),113路;138路;26路;320路;328路;572路;72路,长宁区,上海市,交通设施服务;公交车站;公交车站相关,31.198296912333852,121.41841303022595
天山路延安西路(公交站),1251路(71路支线2),长宁区,上海市,交通设施服务;公交车站;公交车站相关,31.21043230055842,121.40904286872743
天山路中山西路(公交站),1250路(71路支线1);1251路(71路支线2);190路;311路,长宁区,上海市,交通设施服务;公交车站;公交车站相关,31.210554191557588,121.40894279678683
遵义路玉屏南路(公交站),88路,长宁区,上海市,交通设施服务;公交车站;公交车站相关,31.215149957893363,121.40360789955918
长宁路娄山关路(公交站),316路/316路(夜宵线);54路;825路,长宁区,上海市,交通设施服务;公交车站;公交车站相关,31.219181672051544,121.40196608407675
安顺路中山西路(公交站),48路;911路,长宁区,上海市,交通设施服务;公交车站;公交车站相关,31.202143743668017,121.40985210562599
中山西路新华路(公交站),328路,长宁区,上海市,交通设施服务;公交车站;公交车站相关,31.205975726074218,121.40749336697769
玉屏南路遵义路(公交站),519路;737路;88路,长宁区,上海市,交通设施服务;公交车站;公交车站相关,31.214880889933532,121.4027986763651
中山西路安顺路(公交站),141路;224路;328路;48路;72路;754路;776路/776路高峰定班车;808路;855路;909路,长宁区,上海市,交通设施服务;公交车站;公交车站相关,31.199324411446582,121.41037170033906
中山西路虹桥路(公交站),141路;149路;224路;328路;48路;72路;776路/776路高峰定班车;808路;855路;909路,长宁区,上海市,交通设施服务;公交车站;公交车站相关,31.19621440504775,121.41273874483842
娄山关路天山路(公交站),309路;519路;69路;737路;88路,长宁区,上海市,交通设施服务;公交车站;公交车站相关,31.212183691435204,121.39960927609931
遵义南路兴义路(公交站),737路,长宁区,上海市,交通设施服务;公交车站;公交车站相关,31.206652571777518,121.40135703957422
天山路娄山关路(公交站),1250路(71路支线1);141路;190路;311路;519路;72路;808路;829路;856路;941路;944路,长宁区,上海市,交通设施服务;公交车站;公交车站相关,31.213111172055005,121.39810608116613
茅台路娄山关路(公交站),944路,长宁区,上海市,交通设施服务;公交车站;公交车站相关,31.211631879043146,121.39783920213159
娄山关路仙霞路(公交站),309路;69路,长宁区,上海市,交通设施服务;公交车站;公交车站相关,31.20884124660542,121.39876948897441
虹桥路姚虹西路(公交站),827路;836路,长宁区,上海市,交通设施服务;公交车站;公交车站相关,31.198860051297533,121.4043415716509
宋园路黄金城道(公交站),113路,长宁区,上海市,交通设施服务;公交车站;公交车站相关,31.193384538903167,121.40886124132554
天山支路古北路(公交站),316路/316路(夜宵线);54路;757路;825路;944路;普陀社区巴士,长宁区,上海市,交通设施服务;公交车站;公交车站相关,31.216642876114012,121.39348215758487
姚虹路黄金城道(公交站),149路,长宁区,上海市,交通设施服务;公交车站;公交车站相关,31.194693152619802,121.40450199359047
茅台路芙蓉江路(公交站),1251路(71路支线2);519路;836路;855路;88路;944路,长宁区,上海市,交通设施服务;公交车站;公交车站相关,31.211653540001926,121.39217889879907
芙蓉江路天山路(公交站),855路,长宁区,上海市,交通设施服务;公交车站;公交车站相关,31.214016764139508,121.39085109343571
芙蓉江路茅台路(公交站),1250路(71路支线1);829路;855路,长宁区,上海市,交通设施服务;公交车站;公交车站相关,31.212792375656303,121.39076722841624
红宝石路银珠路(公交站),158路;737路,长宁区,上海市,交通设施服务;公交车站;公交车站相关,31.199029012110692,121.39702329873813
天山路芙蓉江路(公交站),1250路(71路支线1);141路;158路;190路;311路;316路/316路(夜宵线);54路;72路;757路;808路;825路;829路;855路;856路;941路,长宁区,上海市,交通设施服务;公交车站;公交车站相关,31.215387689418037,121.38911263206658
芙蓉江路仙霞路(公交站),700路;737路,长宁区,上海市,交通设施服务;公交车站;公交车站相关,31.209980743123083,121.3907144913848
蓝宝石路玛瑙路(公交站),737路,长宁区,上海市,交通设施服务;公交车站;公交车站相关,31.194671149506853,121.39793168174224
芙蓉江路虹古路(公交站),1217路,长宁区,上海市,交通设施服务;公交车站;公交车站相关,31.206640383068883,121.39063081121928
仙霞路芙蓉江路(公交站),519路;836路;88路;944路,长宁区,上海市,交通设施服务;公交车站;公交车站相关,31.20762627029391,121.38952513860285
蓝宝石路古北路(公交站),158路;737路,长宁区,上海市,交通设施服务;公交车站;公交车站相关,31.195174079965938,121.39486479755688
古北路荣华东道(公交站),737路,长宁区,上海市,交通设施服务;公交车站;公交车站相关,31.196566626558628,121.39337792801184
水城南路虹桥路(公交站),519路;700路;757路;827路;941路,长宁区,上海市,交通设施服务;公交车站;公交车站相关,31.20049330486516,121.38806140053306
威宁路新渔东路(公交站),54路;825路,长宁区,上海市,交通设施服务;公交车站;公交车站相关,31.21568831314403,121.3804131089072
延安西路虹许路(公交站),320路;机场守航夜宵线,长宁区,上海市,交通设施服务;公交车站;公交车站相关,31.195621388782264,121.38289192194883
虹梅路延安西路(公交站),519路;757路,长宁区,上海市,交通设施服务;公交车站;公交车站相关,31.19584529770277,121.37862340931176
北渔路天山西路(公交站),551路;91路,长宁区,上海市,交通设施服务;公交车站;公交车站相关,31.219718123786123,121.36804345987507
天山西路北渔路(公交站),141路;190路;216路;316路/316路(夜宵线);750路;808路;846路;855路;880路;青泸线,长宁区,上海市,交通设施服务;公交车站;公交车站相关,31.21893231873975,121.36734249283859
天山西路剑河路(公交站),141路;196路;216路;316路/316路(夜宵线);750路;808路;846路;855路;91路;青泸线,长宁区,上海市,交通设施服务;公交车站;公交车站相关,31.219254148892894,121.36570479109243
剑河路天山西路(公交站),196路;836路;91路,长宁区,上海市,交通设施服务;公交车站;公交车站相关,31.2184675267958,121.36334338775336
剑河路仙霞西路(公交站),196路;54路;91路,长宁区,上海市,交通设施服务;公交车站;公交车站相关,31.211199864629126,121.36421968692538
仙霞西路剑河路(公交站),54路;825路;836路;88路,长宁区,上海市,交通设施服务;公交车站;公交车站相关,31.210298942367412,121.36295569626674
平塘路天山西路(公交站),836路;846路,长宁区,上海市,交通设施服务;公交车站;公交车站相关,31.220891871944616,121.36002945867926
天山西路平塘路(公交站),141路;750路;808路;846路;855路;880路,长宁区,上海市,交通设施服务;公交车站;公交车站相关,31.219885263037995,121.35868179891821
淞虹路天山西路(公交站),121路;1221路(高峰线);176路;新泾1路;新泾1路(休息日);新泾1路(区间)临,长宁区,上海市,交通设施服务;公交车站;公交车站相关,31.219201692448106,121.35656451368554
天山西路福泉路(公交站),(停运)74路区间;1205路;1221路(高峰线);141路;141路区间;176路;316路/316路(夜宵线);74路;876路;880路;新泾1路;新泾1路区间;青泸线,长宁区,上海市,交通设施服务;公交车站;公交车站相关,31.220095772820635,121.35556620699265
仙霞西路淞虹路(公交站),825路;88路,长宁区,上海市,交通设施服务;公交车站;公交车站相关,31.2107713212684,121.35683177678145
福泉路天山西路(公交站),(停运)74路区间;1205路;74路;846路;876路;安虹线;新泾1路(休息日),长宁区,上海市,交通设施服务;公交车站;公交车站相关,31.221365870173425,121.35381427496007
福泉北路北翟路(公交站),(停运)74路区间;74路,长宁区,上海市,交通设施服务;公交车站;公交车站相关,31.226890963621496,121.35274078556341
福泉北路通协路(公交站),(停运)74路区间;74路,长宁区,上海市,交通设施服务;公交车站;公交车站相关,31.228514177507407,121.3521307896103
福泉路仙霞西路(公交站),141路;141路区间;88路,长宁区,上海市,交通设施服务;公交车站;公交车站相关,31.211659228053055,121.3546306256724
协和路甘溪路站(公交站),1221路(高峰线);825路,长宁区,上海市,交通设施服务;公交车站;公交车站相关,31.214445317014025,121.35181959838538
福泉北路临新路(公交站),(停运)74路区间;74路;新泾1路;新泾1路区间,长宁区,上海市,交通设施服务;公交车站;公交车站相关,31.23419116881755,121.3498995679045
协和路仙霞西路(公交站),1221路(高峰线);176路;825路,长宁区,上海市,交通设施服务;公交车站;公交车站相关,31.21447532671041,121.35180462413328
广顺北路通协路(公交站),新泾1路区间,长宁区,上海市,交通设施服务;公交车站;公交车站相关,31.229742059688654,121.34412056472772
广顺北路临新路(公交站),新泾1路,长宁区,上海市,交通设施服务;公交车站;公交车站相关,31.23496632668976,121.34373191840045
仙霞西路北祥路(公交站),1221路(高峰线);141路;141路区间;176路,长宁区,上海市,交通设施服务;公交车站;公交车站相关,31.211663075817565,121.34499732300138
友乐路迎宾一路(公交站),176路;941路,长宁区,上海市,交通设施服务;公交车站;公交车站相关,31.194433407176014,121.34915646526393
迎乐路仙霞西路(公交站),1221路(高峰线);941路,长宁区,上海市,交通设施服务;公交车站;公交车站相关,31.210402252979286,121.34352846928344
东诸安浜路江苏路(公交站),44路,长宁区,上海市,交通设施服务;公交车站;公交车站相关,31.219999479912442,121.42810639050673
中山公园(长宁路)(公交站),13路;20路;54路;737路;765路;776路/776路高峰定班车;825路;941路;946路,长宁区,上海市,交通设施服务;公交车站;公交车站相关,31.220598815305564,121.41441706265734
延安西路中山西路(公交站),57路;776路/776路高峰定班车,长宁区,上海市,交通设施服务;公交车站;公交车站相关,31.209349171886647,121.40971438837552
延安西路娄山关路(公交站),328路;57路;911路,长宁区,上海市,交通设施服务;公交车站;公交车站相关,31.203163989987914,121.39698493938904
红宝石路伊犁南路(公交站),158路;737路,长宁区,上海市,交通设施服务;公交车站;公交车站相关,31.198380432151843,121.39999152622958
伊犁南路黄金城道(公交站),158路;737路,长宁区,上海市,交通设施服务;公交车站;公交车站相关,31.195827697336107,121.40006775896244
迎宾三路空港一路(公交站),807路,长宁区,上海市,交通设施服务;公交车站;公交车站相关,31.186804614737543,121.34538068964598
虹桥机场1号航站楼(公交站),1207路;176路;807路;虹桥机场穿梭巴士,长宁区,上海市,交通设施服务;公交车站;公交车站相关,31.194446849108267,121.34250898228706
中山公园(万航渡路)(公交站),20路,长宁区,上海市,交通设施服务;公交车站;公交车站相关,31.22555525139779,121.4141033508778
上海动物园(虹井路)(公交站),196路;519路;57路;739路;748路(71路支线3);807路;809路;911路;91路;941路;新泾1路;新泾1路(休息日);新泾1路(区间)临,长宁区,上海市,交通设施服务;公交车站;公交车站相关,31.19104057366201,121.36280460426266
上海动物园(虹桥路)(公交站),519路;721路;739路;748路(71路支线3);807路;911路;91路;941路;虹桥枢纽1路,长宁区,上海市,交通设施服务;公交车站;公交车站相关,31.191882739062695,121.36089256752791
上海动物园(招呼站)(公交站),上青线,长宁区,上海市,交通设施服务;公交车站;公交车站相关,31.191777938578543,121.36078574992436
虹许路古羊路(招呼站)(公交站),69路,长宁区,上海市,交通设施服务;公交车站;公交车站相关,31.195719754590154,121.3838602357692
北翟路协和路(招呼站)(公交站),880路,长宁区,上海市,交通设施服务;公交车站;公交车站相关,31.2256901968829,121.34686930100627
环西一大道沪青平公路(公交站),196路,长宁区,上海市,交通设施服务;公交车站;公交车站相关,31.18586433250712,121.35307172768879
天山西路平塘路(招呼站)(公交站),青泸线,长宁区,上海市,交通设施服务;公交车站;公交车站相关,31.219941541503413,121.35778232989901
延安西路虹井路(临时站)(公交站),328路;721路,长宁区,上海市,交通设施服务;公交车站;公交车站相关,31.18863452096661,121.36299551700459
沪青平公路外环高速公路(公交站),519路;739路;748路(71路支线3);911路;91路;虹桥枢纽1路,长宁区,上海市,交通设施服务;公交车站;公交车站相关,31.18578537211326,121.35307173452071
上海火车站(北广场)(公交站),115路;117路;305路;306路;310路;823路;912路;929路;942路;962路;新川专线,静安区,上海市,交通设施服务;公交车站;公交车站相关,31.25354109186469,121.45084147352682
上海火车站(南广场)(公交站),104路;109路;301路;302路;308路;315路;322路;324路;328路;329路;837路;927路;930路;941路;955路;沪唐专线;申川专线;隧道三线;隧道夜宵线,静安区,上海市,交通设施服务;公交车站;公交车站相关,31.250836173840234,121.44849359186001
上海电视台(公交站),109路;112路;112路区间;20路;324路;330路;37路,静安区,上海市,交通设施服务;公交车站;公交车站相关,31.232892756203988,121.45867015537463
乌镇路蒙古路(公交站),210路,静安区,上海市,交通设施服务;公交车站;公交车站相关,31.244436681579245,121.46272534319849
茂名北路(公交站),71路;71路区间,静安区,上海市,交通设施服务;公交车站;公交车站相关,31.22597952378309,121.45684243937173
新闸路泰兴路(公交站),104路;19路,静安区,上海市,交通设施服务;公交车站;公交车站相关,31.2359172706388,121.45359744648692
海宁路晋元路(公交站),315路;332路;510路;58路;930路;隧道三线;隧道夜宵线,静安区,上海市,交通设施服务;公交车站;公交车站相关,31.24621084494968,121.46387273103886
晋元路海宁路(公交站),859路;930路,静安区,上海市,交通设施服务;公交车站;公交车站相关,31.246925098229035,121.4648597465073
恒丰路光复路(公交站),185路,静安区,上海市,交通设施服务;公交车站;公交车站相关,31.24153033893649,121.45343651961201
新闸路江宁路(公交站),104路;136路;206路;316路/316路(夜宵线);36路,静安区,上海市,交通设施服务;公交车站;公交车站相关,31.234890309217658,121.45030065496965
汉中路地铁站(公交站),741路,静安区,上海市,交通设施服务;公交车站;公交车站相关,31.24361877241524,121.45403298693081
康定路泰兴路(公交站),19路,静安区,上海市,交通设施服务;公交车站;公交车站相关,31.23875497613097,121.45049884346112
昌化路武定路(公交站),68路;950路,静安区,上海市,交通设施服务;公交车站;公交车站相关,31.237256316396266,121.44942817181465
长安路恒通路(公交站),845路,静安区,上海市,交通设施服务;公交车站;公交车站相关,31.242539622558372,121.45156234408299
武定路江宁路(公交站),23路,静安区,上海市,交通设施服务;公交车站;公交车站相关,31.236126525242227,121.44693492676629
康定路江宁路(公交站),23路,静安区,上海市,交通设施服务;公交车站;公交车站相关,31.237039789880672,121.44630027442179
恒丰路汉中路(公交站),104路;109路;185路;301路;324路;41路;64路;741路;845路;927路;955路,静安区,上海市,交通设施服务;公交车站;公交车站相关,31.244983764900972,121.45122523227238
上海展览中心(公交站),71路;71路区间,静安区,上海市,交通设施服务;公交车站;公交车站相关,31.22532035749877,121.44874042701083
西康路新闸路(公交站),206路;24路;304路,静安区,上海市,交通设施服务;公交车站;公交车站相关,31.2320694316229,121.44598693322926
江宁路康定路(公交站),112路;112路区间;19路;316路/316路(夜宵线);36路;738路;950路,静安区,上海市,交通设施服务;公交车站;公交车站相关,31.238171939360907,121.44613877891706
民立路共和路(公交站),510路;768路,静安区,上海市,交通设施服务;公交车站;公交车站相关,31.247008572179634,121.45154591456212
虬江路公兴路(公交站),305路;306路;310路;65路;78路;929路;962路,静安区,上海市,交通设施服务;公交车站;公交车站相关,31.253953371878957,121.47023236601517
昌平路江宁路(公交站),113路,静安区,上海市,交通设施服务;公交车站;公交车站相关,31.238706330013553,121.44447971135803
武定路西康路(公交站),23路,静安区,上海市,交通设施服务;公交车站;公交车站相关,31.234111377132677,121.44343964813154
西康路康定路(公交站),24路;304路,静安区,上海市,交通设施服务;公交车站;公交车站相关,31.235413135643807,121.44311076736358
长乐路富民路(公交站),26路,静安区,上海市,交通设施服务;公交车站;公交车站相关,31.22003183308225,121.44873386645395
永兴路公兴路(公交站),309路;69路,静安区,上海市,交通设施服务;公交车站;公交车站相关,31.25522358817217,121.46831101000636
新闸路西康路(公交站),136路,静安区,上海市,交通设施服务;公交车站;公交车站相关,31.23194123171161,121.44285146527517
昌化路海防路(公交站),54路,静安区,上海市,交通设施服务;公交车站;公交车站相关,31.242069602081138,121.44438018308091
康定路西康路(公交站),23路,静安区,上海市,交通设施服务;公交车站;公交车站相关,31.23543824905476,121.44213952434892
中兴路止园路(公交站),309路;69路;823路,静安区,上海市,交通设施服务;公交车站;公交车站相关,31.25572105054346,121.46594641168774
中兴路长兴路(公交站),115路;140路;306路;310路;78路;823路;929路;942路;962路;963路,静安区,上海市,交通设施服务;公交车站;公交车站相关,31.254115696798152,121.45765837456379
常德路新闸路(公交站),138路;76路,静安区,上海市,交通设施服务;公交车站;公交车站相关,31.231834167977652,121.44174994906767
海防路江宁路(公交站),113路;54路;76路,静安区,上海市,交通设施服务;公交车站;公交车站相关,31.24085227794236,121.4429188508336
常德路(公交站),71路;71路区间,静安区,上海市,交通设施服务;公交车站;公交车站相关,31.223522678380412,121.44413620591324
鸿兴路宝山路(公交站),132路,静安区,上海市,交通设施服务;公交车站;公交车站相关,31.256235200976626,121.47162575789162
昌平路西康路(公交站),113路;328路;765路,静安区,上海市,交通设施服务;公交车站;公交车站相关,31.23768647568447,121.4417494416203
江宁路海防路(公交站),112路;112路区间;19路;206路;316路/316路(夜宵线);328路;54路;68路;738路;950路,静安区,上海市,交通设施服务;公交车站;公交车站相关,31.24171904801894,121.4430029712003
鸿兴路永兴路(公交站),51路;66路;66路区间,静安区,上海市,交通设施服务;公交车站;公交车站相关,31.25661231436471,121.47136486316514
城市航站楼(公交站),机场二线,静安区,上海市,交通设施服务;公交车站;公交车站相关,31.22670326534518,121.44159804885608
鸿兴路临山路(公交站),306路;929路,静安区,上海市,交通设施服务;公交车站;公交车站相关,31.257209893082447,121.47094442551447
愚园路胶州路(公交站),21路;37路;57路;825路,静安区,上海市,交通设施服务;公交车站;公交车站相关,31.227433701392044,121.44094752413312
上海火车站(公交站),(停运)上海国际旅游度假区快线1号线;南新专线;申方专线,静安区,上海市,交通设施服务;公交车站;公交车站相关,31.249867430694238,121.44746907714483
武定路常德路(公交站),23路,静安区,上海市,交通设施服务;公交车站;公交车站相关,31.232454877451516,121.4395941101046
中兴路普善路(公交站),140路;78路;859路;912路;963路,静安区,上海市,交通设施服务;公交车站;公交车站相关,31.254540443248988,121.45208872449108
海防路西康路(公交站),113路;328路;54路;765路;76路,静安区,上海市,交通设施服务;公交车站;公交车站相关,31.239397205936438,121.43987612313047
康定路常德路(公交站),23路,静安区,上海市,交通设施服务;公交车站;公交车站相关,31.234093661758305,121.43878322309855
宝山路鸿兴路(公交站),18路;302路;310路;318路;329路;537路;66路;66路区间;78路;952路;962路,静安区,上海市,交通设施服务;公交车站;公交车站相关,31.258385254219004,121.47270515863295
中兴路鸿兴路(公交站),302路;305路;310路;329路;537路;65路;78路;823路;942路;952路;962路,静安区,上海市,交通设施服务;公交车站;公交车站相关,31.25884084667557,121.47009449588361
常德路康定路(公交站),138路;76路,静安区,上海市,交通设施服务;公交车站;公交车站相关,31.235034725897634,121.43850054035707
昌平路常德路(公交站),113路,静安区,上海市,交通设施服务;公交车站;公交车站相关,31.23650981795391,121.43837013649211
西康路海防路(公交站),24路;304路;36路,静安区,上海市,交通设施服务;公交车站;公交车站相关,31.24002434219379,121.43900418209023
常熟路华山路(公交站),15路;315路;321路;327路;40路;45路;49路;824路;830路;927路;93路;94路,静安区,上海市,交通设施服务;公交车站;公交车站相关,31.219272297030283,121.44292072110015
新闸路胶州路(公交站),136路,静安区,上海市,交通设施服务;公交车站;公交车站相关,31.22956794086852,121.43832464148025
静安寺(公交站),113路;15路;20路;315路;321路;323路;327路;330路;37路;40路;45路;57路;76路;824路;830路;838路;927路;93路;94路,静安区,上海市,交通设施服务;公交车站;公交车站相关,31.226007349833022,121.43930404046037
华山路(公交站),71路;71路区间,静安区,上海市,交通设施服务;公交车站;公交车站相关,31.22280772038482,121.44032855142332
普善路中兴路(公交站),744路,静安区,上海市,交通设施服务;公交车站;公交车站相关,31.255086885062976,121.45060471346676
武定路延平路(公交站),23路,静安区,上海市,交通设施服务;公交车站;公交车站相关,31.231560622916703,121.43694860664401
新闸路延平路(公交站),113路;136路;328路;40路;830路;93路,静安区,上海市,交通设施服务;公交车站;公交车站相关,31.228777756973493,121.43743785520746
胶州路康定路(公交站),113路;328路;40路;830路,静安区,上海市,交通设施服务;公交车站;公交车站相关,31.234429140966263,121.43685616903896
常德路余姚路(公交站),138路;765路;76路,静安区,上海市,交通设施服务;公交车站;公交车站相关,31.237192135048208,121.4370092430341
宝通路宝山路(公交站),78路,静安区,上海市,交通设施服务;公交车站;公交车站相关,31.26036315383633,121.4722605093317
康定路延平路(公交站),23路,静安区,上海市,交通设施服务;公交车站;公交车站相关,31.232929653430933,121.4361608895073
长乐路常熟路(公交站),40路,静安区,上海市,交通设施服务;公交车站;公交车站相关,31.21767968257637,121.44221022169809
上海中医院(公交站),963路,静安区,上海市,交通设施服务;公交车站;公交车站相关,31.260956893613642,121.46637431833933
中兴路宝通路(公交站),66路;66路区间;942路;962路,静安区,上海市,交通设施服务;公交车站;公交车站相关,31.261039285681452,121.47205376482064
胶州路余姚路(公交站),40路;830路,静安区,上海市,交通设施服务;公交车站;公交车站相关,31.23667879424527,121.43548020691628
余姚路胶州路(公交站),54路,静安区,上海市,交通设施服务;公交车站;公交车站相关,31.23796151115713,121.43566345908889
美丽园(公交站),323路;838路,静安区,上海市,交通设施服务;公交车站;公交车站相关,31.222379067849296,121.43704059041008
华东医院(公交站),62路,静安区,上海市,交通设施服务;公交车站;公交车站相关,31.221555885663538,121.43611578418687
武定路万春街(公交站),23路,静安区,上海市,交通设施服务;公交车站;公交车站相关,31.229756647814686,121.43340881204425
昌平路延平路(公交站),765路,静安区,上海市,交通设施服务;公交车站;公交车站相关,31.23469184143479,121.43307275552107
宝昌路青云路(公交站),1208路,静安区,上海市,交通设施服务;公交车站;公交车站相关,31.26439942035898,121.46675724071349
中山北路(公交站),702路,静安区,上海市,交通设施服务;公交车站;公交车站相关,31.262753473743413,121.45580831903881
延平路余姚路(公交站),717路,静安区,上海市,交通设施服务;公交车站;公交车站相关,31.236989075612144,121.43195650787044
北区汽车站(公交站),1208路;北安线,静安区,上海市,交通设施服务;公交车站;公交车站相关,31.263031358103976,121.45581030071293
余姚路延平路(公交站),765路,静安区,上海市,交通设施服务;公交车站;公交车站相关,31.23639973628266,121.43155082969464
康定路万春街(公交站),23路,静安区,上海市,交通设施服务;公交车站;公交车站相关,31.232597346654796,121.4307797959164
镇宁路(公交站),71路;71路区间,静安区,上海市,交通设施服务;公交车站;公交车站相关,31.219956018143826,121.433899589309
愚园路镇宁路(公交站),138路;20路;330路;825路,静安区,上海市,交通设施服务;公交车站;公交车站相关,31.222928056364104,121.43225526965689
华山路长乐路(公交站),113路;328路;48路;548路,静安区,上海市,交通设施服务;公交车站;公交车站相关,31.21696914748337,121.43496189588456
柳营路泽州路(公交站),702路;98路,静安区,上海市,交通设施服务;公交车站;公交车站相关,31.265506923977888,121.45131469971211
忻康里(公交站),23路;824路,静安区,上海市,交通设施服务;公交车站;公交车站相关,31.23099914971937,121.42644682400068
闸北公园(公交站),210路;312路;322路;40路;46路;849路;944路;95路,静安区,上海市,交通设施服务;公交车站;公交车站相关,31.26849831420463,121.4538092220045
长寿路武宁路(公交站),13路;316路/316路(夜宵线);321路;54路,静安区,上海市,交通设施服务;公交车站;公交车站相关,31.234409167645907,121.42449864103455
沪太路新村路(公交站),185路;332路;40路;41路;58路;845路;912路;963路,静安区,上海市,交通设施服务;公交车站;公交车站相关,31.268920660828545,121.43848156382253
广延路延长路(公交站),107路,静安区,上海市,交通设施服务;公交车站;公交车站相关,31.275131924889077,121.45224737611817
运城路大宁路(公交站),912路,静安区,上海市,交通设施服务;公交车站;公交车站相关,31.271738334943837,121.43726577584972
大宁路运城路(公交站),40路;547路;937路;959路,静安区,上海市,交通设施服务;公交车站;公交车站相关,31.271815287428904,121.43896333978667
大宁路万荣路(公交站),40路;547路,静安区,上海市,交通设施服务;公交车站;公交车站相关,31.27543348827322,121.44461385500996
广延路大宁路(公交站),107路,静安区,上海市,交通设施服务;公交车站;公交车站相关,31.279359526484775,121.45107686935687
宜川路沪太路(公交站),547路;937路,静安区,上海市,交通设施服务;公交车站;公交车站相关,31.272093112071552,121.43358947879935
沪太路宜川路(公交站),185路;332路;58路;845路;963路,静安区,上海市,交通设施服务;公交车站;公交车站相关,31.272739349925825,121.42993585058544
运城路宜川路(公交站),912路;959路,静安区,上海市,交通设施服务;公交车站;公交车站相关,31.274998055892546,121.43241203685764
粤秀路彭江路(公交站),758路,静安区,上海市,交通设施服务;公交车站;公交车站相关,31.28773712933506,121.4567147528595
万荣路灵石路(公交站),210路,静安区,上海市,交通设施服务;公交车站;公交车站相关,31.282652365298727,121.43874793943824
灵石路平利路(公交站),206路;510路;547路;951路,静安区,上海市,交通设施服务;公交车站;公交车站相关,31.27266711255105,121.42077433842212
灵石路沪太路(公交站),165路;206路;951路,静安区,上海市,交通设施服务;公交车站;公交车站相关,31.278299988696318,121.42698554503255
灵石路万荣路(公交站),206路;758路;79路;951路,静安区,上海市,交通设施服务;公交车站;公交车站相关,31.284568187812784,121.43680672005515
高平路灵石路(公交站),845路;959路,静安区,上海市,交通设施服务;公交车站;公交车站相关,31.279438394145263,121.42689330231603
灵石路原平路(公交站),206路;758路;79路,静安区,上海市,交通设施服务;公交车站;公交车站相关,31.281586446351398,121.4304930412466
原平路灵石路(公交站),165路,静安区,上海市,交通设施服务;公交车站;公交车站相关,31.281822266771734,121.4290255262815
龙潭(沪太路)(公交站),185路;332路;58路;68路;702路;767路;909路;963路,静安区,上海市,交通设施服务;公交车站;公交车站相关,31.27896899390579,121.42311182836906
龙潭(公交站),332路,静安区,上海市,交通设施服务;公交车站;公交车站相关,31.27898596867687,121.4230958050919
万荣路永和路(公交站),210路,静安区,上海市,交通设施服务;公交车站;公交车站相关,31.287853437983014,121.43773134358672
晋城路原平路(公交站),1209路,静安区,上海市,交通设施服务;公交车站;公交车站相关,31.282922478715033,121.4272986337613
晋城路高平路(公交站),1209路,静安区,上海市,交通设施服务;公交车站;公交车站相关,31.282731650072236,121.42416496270347
永和路万荣路(公交站),206路;758路;79路,静安区,上海市,交通设施服务;公交车站;公交车站相关,31.289741769319132,121.43835749499769
高平路阳城路(公交站),1209路;845路;959路,静安区,上海市,交通设施服务;公交车站;公交车站相关,31.283936316478272,121.42430305377162
晋城路沪太路(公交站),1209路,静安区,上海市,交通设施服务;公交车站;公交车站相关,31.28259866824077,121.42145332668824
汶水路粤秀路(公交站),528路;758路,静安区,上海市,交通设施服务;公交车站;公交车站相关,31.29632727773626,121.45655354947357
原平路阳城路(公交站),1209路;165路;758路;79路,静安区,上海市,交通设施服务;公交车站;公交车站相关,31.28703500958748,121.42746553966587
汶水路寿阳路(公交站),528路,静安区,上海市,交通设施服务;公交车站;公交车站相关,31.29625870349343,121.45331646732872
阳城路原平路(公交站),1209路;762路;845路;909路;959路,静安区,上海市,交通设施服务;公交车站;公交车站相关,31.286320846098942,121.42554765664426
汶水路万荣路(公交站),04路;04路区间;179路;762路;879路,静安区,上海市,交通设施服务;公交车站;公交车站相关,31.29290377852031,121.43795236745738
永和路原平路(公交站),210路,静安区,上海市,交通设施服务;公交车站;公交车站相关,31.288630249701747,121.42886466724023
阳城路高平路(公交站),1209路,静安区,上海市,交通设施服务;公交车站;公交车站相关,31.286143899230222,121.42209484629308
高平路永和路(公交站),1209路,静安区,上海市,交通设施服务;公交车站;公交车站相关,31.287160013645998,121.42346259563928
下客站(公交站),04路,静安区,上海市,交通设施服务;公交车站;公交车站相关,31.296258901920655,121.44357959692897
原平路永和路(公交站),165路;210路;758路;762路;79路;845路;909路;959路,静安区,上海市,交通设施服务;公交车站;公交车站相关,31.289875621882477,121.42729001513364
汶水路原平路(公交站),159路,静安区,上海市,交通设施服务;公交车站;公交车站相关,31.29125861227649,121.42616615610801
高平路汶水路(公交站),1209路;210路;845路;909路;959路,静安区,上海市,交通设施服务;公交车站;公交车站相关,31.28964160993845,121.4231179071653
原平路汶水路(公交站),151路;159路;179路;210路;845路;959路,静安区,上海市,交通设施服务;公交车站;公交车站相关,31.292302409396175,121.42711352662874
江场路寿阳路(公交站),762路;877路;879路,静安区,上海市,交通设施服务;公交车站;公交车站相关,31.30104610692583,121.4543108046618
交城路高平路(公交站),179路;909路,静安区,上海市,交通设施服务;公交车站;公交车站相关,31.295572723653304,121.42604359478659
原平路交城路(公交站),151路;159路;165路;210路;845路;909路,静安区,上海市,交通设施服务;公交车站;公交车站相关,31.296078576458516,121.42686881604412
场中路阳曲路(公交站),187路,静安区,上海市,交通设施服务;公交车站;公交车站相关,31.307783298867406,121.45635298676437
场中路岭南路(公交站),187路;912路,静安区,上海市,交通设施服务;公交车站;公交车站相关,31.3074780212458,121.45187758308313
场中路平顺路(公交站),187路;912路,静安区,上海市,交通设施服务;公交车站;公交车站相关,31.307439497355052,121.44750218083871
阳曲路场中路(公交站),118路;597路;745路;749路;812路;850路;912路,静安区,上海市,交通设施服务;公交车站;公交车站相关,31.309014767525742,121.45548842180824
闻喜路阳泉路(公交站),833路早高峰;833路晚高峰,静安区,上海市,交通设施服务;公交车站;公交车站相关,31.31025783384816,121.45779894429567
闻喜路阳曲路(公交站),206路;833路早高峰;833路晚高峰,静安区,上海市,交通设施服务;公交车站;公交车站相关,31.310287476909767,121.45429496232987
场中路三泉路(公交站),110路;187路,静安区,上海市,交通设施服务;公交车站;公交车站相关,31.307048704296545,121.43880694820825
闻喜路岭南路(公交站),04路;745路,静安区,上海市,交通设施服务;公交车站;公交车站相关,31.31022561232382,121.44945994829312
闻喜路平顺路(公交站),04路;951路,静安区,上海市,交通设施服务;公交车站;公交车站相关,31.310015570151883,121.44657664488672
场中路三号桥(公交站),110路;187路;551路;845路,静安区,上海市,交通设施服务;公交车站;公交车站相关,31.306751204725526,121.4343198599591
